@NikonS9900/ver1.0/wgs84
$GPGGA,114217.000,0017.5309,N,03653.9097,E,1,9,,1702.0,M,,M,,*6C
$GPRMC,114217.000,A,0017.5309,N,03653.9097,E,,,210120,,A*4F
$GPGGA,114232.000,0017.5313,N,03653.9090,E,1,9,,1702.0,M,,M,,*67
$GPRMC,114232.000,A,0017.5313,N,03653.9090,E,,,210120,,A*44
$GPGGA,114247.000,0017.5296,N,03653.9095,E,1,9,,1702.0,M,,M,,*6C
$GPRMC,114247.000,A,0017.5296,N,03653.9095,E,,,210120,,A*4F
$GPGGA,114302.000,0017.5282,N,03653.9097,E,1,9,,1702.0,M,,M,,*6B
$GPRMC,114302.000,A,0017.5282,N,03653.9097,E,,,210120,,A*48
$GPGGA,114317.000,0017.5278,N,03653.9097,E,1,9,,1702.0,M,,M,,*6A
$GPRMC,114317.000,A,0017.5278,N,03653.9097,E,,,210120,,A*49
$GPGGA,114332.000,0017.5266,N,03653.9090,E,1,8,,1702.0,M,,M,,*64
$GPRMC,114332.000,A,0017.5266,N,03653.9090,E,,,210120,,A*46
$GPGGA,114341.000,0017.5276,N,03653.9079,E,1,9,,1702.0,M,,M,,*67
$GPRMC,114341.000,A,0017.5276,N,03653.9079,E,,,210120,,A*44
$GPGGA,114357.000,0017.5265,N,03653.9065,E,1,6,,1702.0,M,,M,,*60
$GPRMC,114357.000,A,0017.5265,N,03653.9065,E,,,210120,,A*4C
$GPGGA,114413.000,0017.5268,N,03653.9076,E,1,4,,1702.0,M,,M,,*6A
$GPRMC,114413.000,A,0017.5268,N,03653.9076,E,,,210120,,A*44
$GPGGA,114429.000,0017.5329,N,03653.9053,E,1,8,,1702.0,M,,M,,*6C
$GPRMC,114429.000,A,0017.5329,N,03653.9053,E,,,210120,,A*4E
$GPGGA,114451.000,0017.5370,N,03653.9104,E,1,6,,1702.0,M,,M,,*62
$GPRMC,114451.000,A,0017.5370,N,03653.9104,E,,,210120,,A*4E
$GPGGA,114506.000,0017.5337,N,03653.9133,E,1,6,,1702.0,M,,M,,*66
$GPRMC,114506.000,A,0017.5337,N,03653.9133,E,,,210120,,A*4A
$GPGGA,114521.000,0017.5316,N,03653.9131,E,1,7,,1702.0,M,,M,,*63
$GPRMC,114521.000,A,0017.5316,N,03653.9131,E,,,210120,,A*4E
$GPGGA,114536.000,0017.5301,N,03653.9115,E,1,8,,1702.0,M,,M,,*6A
$GPRMC,114536.000,A,0017.5301,N,03653.9115,E,,,210120,,A*48
$GPGGA,114551.000,0017.5282,N,03653.9115,E,1,8,,1702.0,M,,M,,*61
$GPRMC,114551.000,A,0017.5282,N,03653.9115,E,,,210120,,A*43
$GPGGA,114606.000,0017.5292,N,03653.9104,E,1,8,,1702.0,M,,M,,*61
$GPRMC,114606.000,A,0017.5292,N,03653.9104,E,,,210120,,A*43
$GPGGA,114621.000,0017.5278,N,03653.9092,E,1,8,,1702.0,M,,M,,*6E
$GPRMC,114621.000,A,0017.5278,N,03653.9092,E,,,210120,,A*4C
$GPGGA,114636.000,0017.5265,N,03653.9079,E,1,8,,1702.0,M,,M,,*61
$GPRMC,114636.000,A,0017.5265,N,03653.9079,E,,,210120,,A*43
$GPGGA,114651.000,0017.5266,N,03653.9083,E,1,8,,1702.0,M,,M,,*66
$GPRMC,114651.000,A,0017.5266,N,03653.9083,E,,,210120,,A*44
$GPGGA,114706.000,0017.5273,N,03653.9092,E,1,9,,1702.0,M,,M,,*60
$GPRMC,114706.000,A,0017.5273,N,03653.9092,E,,,210120,,A*43
$GPGGA,114721.000,0017.5254,N,03653.9101,E,1,8,,1702.0,M,,M,,*6A
$GPRMC,114721.000,A,0017.5254,N,03653.9101,E,,,210120,,A*48
$GPGGA,114732.000,0017.5294,N,03653.9101,E,1,9,,1702.0,M,,M,,*65
$GPRMC,114732.000,A,0017.5294,N,03653.9101,E,,,210120,,A*46
$GPGGA,114748.000,0017.5300,N,03653.9106,E,1,10,,1702.0,M,,M,,*5B
$GPRMC,114748.000,A,0017.5300,N,03653.9106,E,,,210120,,A*40
$GPGGA,114806.000,0017.5293,N,03653.9099,E,1,8,,1702.0,M,,M,,*6B
$GPRMC,114806.000,A,0017.5293,N,03653.9099,E,,,210120,,A*49
$GPGGA,114821.000,0017.5222,N,03653.9120,E,1,5,,1702.0,M,,M,,*6A
$GPRMC,114821.000,A,0017.5222,N,03653.9120,E,,,210120,,A*45
$GPGGA,114836.000,0017.5220,N,03653.9106,E,1,6,,1702.0,M,,M,,*69
$GPRMC,114836.000,A,0017.5220,N,03653.9106,E,,,210120,,A*45
$GPGGA,114851.000,0017.5253,N,03653.9104,E,1,6,,1702.0,M,,M,,*6E
$GPRMC,114851.000,A,0017.5253,N,03653.9104,E,,,210120,,A*42
$GPGGA,114906.000,0017.5246,N,03653.9111,E,1,7,,1702.0,M,,M,,*6C
$GPRMC,114906.000,A,0017.5246,N,03653.9111,E,,,210120,,A*41
$GPGGA,114921.000,0017.5244,N,03653.9124,E,1,7,,1702.0,M,,M,,*6D
$GPRMC,114921.000,A,0017.5244,N,03653.9124,E,,,210120,,A*40
$GPGGA,114936.000,0017.5267,N,03653.9147,E,1,7,,1702.0,M,,M,,*6F
$GPRMC,114936.000,A,0017.5267,N,03653.9147,E,,,210120,,A*42
$GPGGA,114951.000,0017.5275,N,03653.9127,E,1,7,,1702.0,M,,M,,*6B
$GPRMC,114951.000,A,0017.5275,N,03653.9127,E,,,210120,,A*46
$GPGGA,115006.000,0017.5284,N,03653.9108,E,1,7,,1702.0,M,,M,,*62
$GPRMC,115006.000,A,0017.5284,N,03653.9108,E,,,210120,,A*4F
$GPGGA,115021.000,0017.5286,N,03653.9117,E,1,7,,1703.0,M,,M,,*6A
$GPRMC,115021.000,A,0017.5286,N,03653.9117,E,,,210120,,A*46
