@NikonS9900/ver1.0/wgs84
$GPGGA,074634.000,0004.5973,N,03658.0650,E,1,2,,1811.0,M,,M,,*62
$GPRMC,074634.000,A,0004.5973,N,03658.0650,E,,,120120,,A*47
$GPGGA,074649.000,0004.5990,N,03658.0650,E,1,2,,1801.0,M,,M,,*64
$GPRMC,074649.000,A,0004.5990,N,03658.0650,E,,,120120,,A*40
$GPGGA,074958.000,0003.9147,N,03658.2564,E,1,6,,1830.0,M,,M,,*62
$GPRMC,074958.000,A,0003.9147,N,03658.2564,E,,,120120,,A*40
$GPGGA,075049.000,0003.8667,N,03658.2706,E,1,7,,1830.0,M,,M,,*69
$GPRMC,075049.000,A,0003.8667,N,03658.2706,E,,,120120,,A*4A
$GPGGA,075105.000,0003.8423,N,03658.2738,E,1,7,,1829.0,M,,M,,*67
$GPRMC,075105.000,A,0003.8423,N,03658.2738,E,,,120120,,A*4C
$GPGGA,075121.000,0003.7991,N,03658.2626,E,1,7,,1829.0,M,,M,,*64
$GPRMC,075121.000,A,0003.7991,N,03658.2626,E,,,120120,,A*4F
$GPGGA,075137.000,0003.7329,N,03658.2378,E,1,4,,1828.0,M,,M,,*66
$GPRMC,075137.000,A,0003.7329,N,03658.2378,E,,,120120,,A*4F
$GPGGA,075202.000,0003.6180,N,03658.2610,E,1,7,,1828.0,M,,M,,*6B
$GPRMC,075202.000,A,0003.6180,N,03658.2610,E,,,120120,,A*41
$GPGGA,075217.000,0003.5956,N,03658.2818,E,1,8,,1827.0,M,,M,,*69
$GPRMC,075217.000,A,0003.5956,N,03658.2818,E,,,120120,,A*43
$GPGGA,075234.000,0003.4710,N,03658.2916,E,1,6,,1827.0,M,,M,,*64
$GPRMC,075234.000,A,0003.4710,N,03658.2916,E,,,120120,,A*40
$GPGGA,075249.000,0003.4611,N,03658.2923,E,1,7,,1827.0,M,,M,,*69
$GPRMC,075249.000,A,0003.4611,N,03658.2923,E,,,120120,,A*4C
$GPGGA,075323.000,0003.2352,N,03658.3303,E,1,6,,1827.0,M,,M,,*68
$GPRMC,075323.000,A,0003.2352,N,03658.3303,E,,,120120,,A*4C
$GPGGA,075339.000,0003.2090,N,03658.3134,E,1,7,,1828.0,M,,M,,*66
$GPRMC,075339.000,A,0003.2090,N,03658.3134,E,,,120120,,A*4C
$GPGGA,075355.000,0003.0734,N,03658.3138,E,1,5,,1828.0,M,,M,,*69
$GPRMC,075355.000,A,0003.0734,N,03658.3138,E,,,120120,,A*41
$GPGGA,075410.000,0003.0507,N,03658.3157,E,1,7,,1826.0,M,,M,,*68
$GPRMC,075410.000,A,0003.0507,N,03658.3157,E,,,120120,,A*4C
$GPGGA,075427.000,0003.0141,N,03658.3241,E,1,7,,1824.0,M,,M,,*6C
$GPRMC,075427.000,A,0003.0141,N,03658.3241,E,,,120120,,A*4A
$GPGGA,075442.000,0002.8832,N,03658.2861,E,1,6,,1824.0,M,,M,,*63
$GPRMC,075442.000,A,0002.8832,N,03658.2861,E,,,120120,,A*44
$GPGGA,075459.000,0002.8264,N,03658.2676,E,1,6,,1825.0,M,,M,,*69
$GPRMC,075459.000,A,0002.8264,N,03658.2676,E,,,120120,,A*4F
$GPGGA,075517.000,0002.7637,N,03658.2326,E,1,6,,1824.0,M,,M,,*6E
$GPRMC,075517.000,A,0002.7637,N,03658.2326,E,,,120120,,A*49
$GPGGA,075533.000,0002.6948,N,03658.2152,E,1,7,,1824.0,M,,M,,*6E
$GPRMC,075533.000,A,0002.6948,N,03658.2152,E,,,120120,,A*48
$GPGGA,075549.000,0002.6295,N,03658.1895,E,1,6,,1824.0,M,,M,,*68
$GPRMC,075549.000,A,0002.6295,N,03658.1895,E,,,120120,,A*4F
$GPGGA,075605.000,0002.5760,N,03658.1719,E,1,8,,1824.0,M,,M,,*6A
$GPRMC,075605.000,A,0002.5760,N,03658.1719,E,,,120120,,A*43
$GPGGA,075620.000,0002.5280,N,03658.1564,E,1,7,,1824.0,M,,M,,*61
$GPRMC,075620.000,A,0002.5280,N,03658.1564,E,,,120120,,A*47
$GPGGA,075700.000,0002.5037,N,03658.1328,E,1,8,,1825.0,M,,M,,*6C
$GPRMC,075700.000,A,0002.5037,N,03658.1328,E,,,120120,,A*44
$GPGGA,075715.000,0002.5058,N,03658.1348,E,1,8,,1825.0,M,,M,,*67
$GPRMC,075715.000,A,0002.5058,N,03658.1348,E,,,120120,,A*4F
$GPGGA,075731.000,0002.4944,N,03658.1133,E,1,9,,1825.0,M,,M,,*6B
$GPRMC,075731.000,A,0002.4944,N,03658.1133,E,,,120120,,A*42
$GPGGA,075747.000,0002.4782,N,03658.0916,E,1,6,,1825.0,M,,M,,*6F
$GPRMC,075747.000,A,0002.4782,N,03658.0916,E,,,120120,,A*49
$GPGGA,075802.000,0002.4829,N,03658.0932,E,1,10,,1825.0,M,,M,,*5E
$GPRMC,075802.000,A,0002.4829,N,03658.0932,E,,,120120,,A*4F
$GPGGA,075817.000,0002.4845,N,03658.0927,E,1,10,,1825.0,M,,M,,*54
$GPRMC,075817.000,A,0002.4845,N,03658.0927,E,,,120120,,A*45
$GPGGA,075832.000,0002.4842,N,03658.0939,E,1,11,,1825.0,M,,M,,*5A
$GPRMC,075832.000,A,0002.4842,N,03658.0939,E,,,120120,,A*4A
$GPGGA,075839.000,0002.4828,N,03658.0888,E,1,11,,1825.0,M,,M,,*56
$GPRMC,075839.000,A,0002.4828,N,03658.0888,E,,,120120,,A*46
$GPGGA,075855.000,0002.4844,N,03658.0708,E,1,11,,1826.0,M,,M,,*52
$GPRMC,075855.000,A,0002.4844,N,03658.0708,E,,,120120,,A*41
$GPGGA,075911.000,0002.4943,N,03658.0241,E,1,10,,1826.0,M,,M,,*5C
$GPRMC,075911.000,A,0002.4943,N,03658.0241,E,,,120120,,A*4E
$GPGGA,075927.000,0002.5091,N,03658.0048,E,1,11,,1825.0,M,,M,,*57
$GPRMC,075927.000,A,0002.5091,N,03658.0048,E,,,120120,,A*47
$GPGGA,075944.000,0002.5287,N,03657.9206,E,1,9,,1825.0,M,,M,,*60
$GPRMC,075944.000,A,0002.5287,N,03657.9206,E,,,120120,,A*49
$GPGGA,080000.000,0002.5444,N,03657.8723,E,1,10,,1825.0,M,,M,,*51
$GPRMC,080000.000,A,0002.5444,N,03657.8723,E,,,120120,,A*40
$GPGGA,080016.000,0002.5528,N,03657.8460,E,1,9,,1825.0,M,,M,,*61
$GPRMC,080016.000,A,0002.5528,N,03657.8460,E,,,120120,,A*48
$GPGGA,080034.000,0002.5790,N,03657.7535,E,1,11,,1825.0,M,,M,,*57
$GPRMC,080034.000,A,0002.5790,N,03657.7535,E,,,120120,,A*47
$GPGGA,080050.000,0002.5955,N,03657.7007,E,1,10,,1825.0,M,,M,,*57
$GPRMC,080050.000,A,0002.5955,N,03657.7007,E,,,120120,,A*46
$GPGGA,080106.000,0002.6056,N,03657.6505,E,1,10,,1825.0,M,,M,,*5A
$GPRMC,080106.000,A,0002.6056,N,03657.6505,E,,,120120,,A*4B
$GPGGA,080121.000,0002.6174,N,03657.6176,E,1,9,,1825.0,M,,M,,*66
$GPRMC,080121.000,A,0002.6174,N,03657.6176,E,,,120120,,A*4F
$GPGGA,080138.000,0002.6300,N,03657.5711,E,1,10,,1825.0,M,,M,,*53
$GPRMC,080138.000,A,0002.6300,N,03657.5711,E,,,120120,,A*42
$GPGGA,080154.000,0002.6341,N,03657.5553,E,1,10,,1825.0,M,,M,,*58
$GPRMC,080154.000,A,0002.6341,N,03657.5553,E,,,120120,,A*49
$GPGGA,080210.000,0002.6601,N,03657.4672,E,1,9,,1825.0,M,,M,,*63
$GPRMC,080210.000,A,0002.6601,N,03657.4672,E,,,120120,,A*4A
$GPGGA,080226.000,0002.6682,N,03657.4404,E,1,11,,1826.0,M,,M,,*54
$GPRMC,080226.000,A,0002.6682,N,03657.4404,E,,,120120,,A*47
$GPGGA,080243.000,0002.6887,N,03657.3676,E,1,10,,1826.0,M,,M,,*5D
$GPRMC,080243.000,A,0002.6887,N,03657.3676,E,,,120120,,A*4F
$GPGGA,080259.000,0002.6879,N,03657.3644,E,1,10,,1826.0,M,,M,,*56
$GPRMC,080259.000,A,0002.6879,N,03657.3644,E,,,120120,,A*44
$GPGGA,080315.000,0002.6896,N,03657.3637,E,1,11,,1826.0,M,,M,,*5B
$GPRMC,080315.000,A,0002.6896,N,03657.3637,E,,,120120,,A*48
$GPGGA,080331.000,0002.6901,N,03657.3617,E,1,11,,1826.0,M,,M,,*50
$GPRMC,080331.000,A,0002.6901,N,03657.3617,E,,,120120,,A*43
$GPGGA,080347.000,0002.6900,N,03657.3589,E,1,11,,1826.0,M,,M,,*54
$GPRMC,080347.000,A,0002.6900,N,03657.3589,E,,,120120,,A*47
$GPGGA,080403.000,0002.6928,N,03657.3457,E,1,11,,1826.0,M,,M,,*5B
$GPRMC,080403.000,A,0002.6928,N,03657.3457,E,,,120120,,A*48
$GPGGA,080419.000,0002.7074,N,03657.2946,E,1,9,,1826.0,M,,M,,*64
$GPRMC,080419.000,A,0002.7074,N,03657.2946,E,,,120120,,A*4E
$GPGGA,080435.000,0002.7223,N,03657.2374,E,1,11,,1826.0,M,,M,,*58
$GPRMC,080435.000,A,0002.7223,N,03657.2374,E,,,120120,,A*4B
$GPGGA,080451.000,0002.7420,N,03657.1777,E,1,10,,1826.0,M,,M,,*5A
$GPRMC,080451.000,A,0002.7420,N,03657.1777,E,,,120120,,A*48
$GPGGA,080507.000,0002.7533,N,03657.1211,E,1,10,,1826.0,M,,M,,*5E
$GPRMC,080507.000,A,0002.7533,N,03657.1211,E,,,120120,,A*4C
$GPGGA,080523.000,0002.7630,N,03657.0861,E,1,9,,1826.0,M,,M,,*6C
$GPRMC,080523.000,A,0002.7630,N,03657.0861,E,,,120120,,A*46
$GPGGA,080540.000,0002.7779,N,03657.0323,E,1,11,,1825.0,M,,M,,*52
$GPRMC,080540.000,A,0002.7779,N,03657.0323,E,,,120120,,A*42
$GPGGA,080555.000,0002.7879,N,03657.0106,E,1,9,,1825.0,M,,M,,*65
$GPRMC,080555.000,A,0002.7879,N,03657.0106,E,,,120120,,A*4C
$GPGGA,080612.000,0002.7876,N,03657.0110,E,1,9,,1825.0,M,,M,,*6D
$GPRMC,080612.000,A,0002.7876,N,03657.0110,E,,,120120,,A*44
$GPGGA,080628.000,0002.7934,N,03657.0028,E,1,9,,1825.0,M,,M,,*69
$GPRMC,080628.000,A,0002.7934,N,03657.0028,E,,,120120,,A*40
$GPGGA,080644.000,0002.7996,N,03656.9804,E,1,11,,1825.0,M,,M,,*5C
$GPRMC,080644.000,A,0002.7996,N,03656.9804,E,,,120120,,A*4C
$GPGGA,080700.000,0002.7926,N,03656.9689,E,1,10,,1826.0,M,,M,,*5F
$GPRMC,080700.000,A,0002.7926,N,03656.9689,E,,,120120,,A*4D
$GPGGA,080716.000,0002.7897,N,03656.9538,E,1,11,,1826.0,M,,M,,*5B
$GPRMC,080716.000,A,0002.7897,N,03656.9538,E,,,120120,,A*48
$GPGGA,080732.000,0002.7894,N,03656.9540,E,1,10,,1826.0,M,,M,,*50
$GPRMC,080732.000,A,0002.7894,N,03656.9540,E,,,120120,,A*42
$GPGGA,080748.000,0002.7935,N,03656.9566,E,1,11,,1826.0,M,,M,,*52
$GPRMC,080748.000,A,0002.7935,N,03656.9566,E,,,120120,,A*41
$GPGGA,080804.000,0002.7963,N,03656.9595,E,1,11,,1826.0,M,,M,,*5A
$GPRMC,080804.000,A,0002.7963,N,03656.9595,E,,,120120,,A*49
$GPGGA,080819.000,0002.8280,N,03656.9675,E,1,9,,1826.0,M,,M,,*6B
$GPRMC,080819.000,A,0002.8280,N,03656.9675,E,,,120120,,A*41
$GPGGA,080835.000,0002.8509,N,03656.9593,E,1,10,,1826.0,M,,M,,*50
$GPRMC,080835.000,A,0002.8509,N,03656.9593,E,,,120120,,A*42
$GPGGA,080851.000,0002.8324,N,03656.9630,E,1,9,,1826.0,M,,M,,*69
$GPRMC,080851.000,A,0002.8324,N,03656.9630,E,,,120120,,A*43
$GPGGA,080907.000,0002.7966,N,03656.9627,E,1,10,,1826.0,M,,M,,*56
$GPRMC,080907.000,A,0002.7966,N,03656.9627,E,,,120120,,A*44
$GPGGA,080924.000,0002.7885,N,03656.9055,E,1,10,,1826.0,M,,M,,*58
$GPRMC,080924.000,A,0002.7885,N,03656.9055,E,,,120120,,A*4A
$GPGGA,080940.000,0002.7863,N,03656.8764,E,1,11,,1826.0,M,,M,,*57
$GPRMC,080940.000,A,0002.7863,N,03656.8764,E,,,120120,,A*44
$GPGGA,080956.000,0002.7779,N,03656.8437,E,1,11,,1826.0,M,,M,,*51
$GPRMC,080956.000,A,0002.7779,N,03656.8437,E,,,120120,,A*42
$GPGGA,081012.000,0002.7707,N,03656.7856,E,1,10,,1825.0,M,,M,,*56
$GPRMC,081012.000,A,0002.7707,N,03656.7856,E,,,120120,,A*47
$GPGGA,081028.000,0002.7699,N,03656.7494,E,1,11,,1825.0,M,,M,,*5A
$GPRMC,081028.000,A,0002.7699,N,03656.7494,E,,,120120,,A*4A
$GPGGA,081044.000,0002.8024,N,03656.7716,E,1,10,,1825.0,M,,M,,*57
$GPRMC,081044.000,A,0002.8024,N,03656.7716,E,,,120120,,A*46
$GPGGA,081100.000,0002.8273,N,03656.7741,E,1,10,,1825.0,M,,M,,*54
$GPRMC,081100.000,A,0002.8273,N,03656.7741,E,,,120120,,A*45
$GPGGA,081116.000,0002.8335,N,03656.7629,E,1,11,,1825.0,M,,M,,*5E
$GPRMC,081116.000,A,0002.8335,N,03656.7629,E,,,120120,,A*4E
$GPGGA,081132.000,0002.8385,N,03656.7604,E,1,9,,1825.0,M,,M,,*65
$GPRMC,081132.000,A,0002.8385,N,03656.7604,E,,,120120,,A*4C
$GPGGA,081148.000,0002.8410,N,03656.7618,E,1,11,,1825.0,M,,M,,*57
$GPRMC,081148.000,A,0002.8410,N,03656.7618,E,,,120120,,A*47
$GPGGA,081204.000,0002.8224,N,03656.7805,E,1,11,,1825.0,M,,M,,*5F
$GPRMC,081204.000,A,0002.8224,N,03656.7805,E,,,120120,,A*4F
$GPGGA,081224.000,0002.7782,N,03656.7542,E,1,11,,1825.0,M,,M,,*55
$GPRMC,081224.000,A,0002.7782,N,03656.7542,E,,,120120,,A*45
$GPGGA,081240.000,0002.7701,N,03656.7336,E,1,11,,1825.0,M,,M,,*59
$GPRMC,081240.000,A,0002.7701,N,03656.7336,E,,,120120,,A*49
$GPGGA,081256.000,0002.7632,N,03656.7078,E,1,10,,1825.0,M,,M,,*57
$GPRMC,081256.000,A,0002.7632,N,03656.7078,E,,,120120,,A*46
$GPGGA,081312.000,0002.7517,N,03656.5986,E,1,10,,1825.0,M,,M,,*58
$GPRMC,081312.000,A,0002.7517,N,03656.5986,E,,,120120,,A*49
$GPGGA,081328.000,0002.7522,N,03656.5807,E,1,10,,1825.0,M,,M,,*5F
$GPRMC,081328.000,A,0002.7522,N,03656.5807,E,,,120120,,A*4E
$GPGGA,081346.000,0002.7367,N,03656.5150,E,1,11,,1825.0,M,,M,,*5A
$GPRMC,081346.000,A,0002.7367,N,03656.5150,E,,,120120,,A*4A
$GPGGA,081402.000,0002.7357,N,03656.5155,E,1,11,,1825.0,M,,M,,*5B
$GPRMC,081402.000,A,0002.7357,N,03656.5155,E,,,120120,,A*4B
$GPGGA,081418.000,0002.7373,N,03656.5148,E,1,11,,1825.0,M,,M,,*5A
$GPRMC,081418.000,A,0002.7373,N,03656.5148,E,,,120120,,A*4A
$GPGGA,081434.000,0002.7357,N,03656.5155,E,1,11,,1825.0,M,,M,,*5E
$GPRMC,081434.000,A,0002.7357,N,03656.5155,E,,,120120,,A*4E
$GPGGA,081451.000,0002.7354,N,03656.5112,E,1,11,,1825.0,M,,M,,*5D
$GPRMC,081451.000,A,0002.7354,N,03656.5112,E,,,120120,,A*4D
$GPGGA,081507.000,0002.7276,N,03656.4752,E,1,11,,1825.0,M,,M,,*5D
$GPRMC,081507.000,A,0002.7276,N,03656.4752,E,,,120120,,A*4D
$GPGGA,081523.000,0002.7177,N,03656.4125,E,1,11,,1824.0,M,,M,,*5E
$GPRMC,081523.000,A,0002.7177,N,03656.4125,E,,,120120,,A*4F
$GPGGA,081539.000,0002.7042,N,03656.3519,E,1,11,,1824.0,M,,M,,*5E
$GPRMC,081539.000,A,0002.7042,N,03656.3519,E,,,120120,,A*4F
$GPGGA,081555.000,0002.6950,N,03656.2548,E,1,10,,1824.0,M,,M,,*5B
$GPRMC,081555.000,A,0002.6950,N,03656.2548,E,,,120120,,A*4B
$GPGGA,081611.000,0002.6941,N,03656.2260,E,1,11,,1824.0,M,,M,,*54
$GPRMC,081611.000,A,0002.6941,N,03656.2260,E,,,120120,,A*45
$GPGGA,081628.000,0002.6881,N,03656.0932,E,1,11,,1824.0,M,,M,,*5D
$GPRMC,081628.000,A,0002.6881,N,03656.0932,E,,,120120,,A*4C
$GPGGA,081643.000,0002.6856,N,03656.0136,E,1,9,,1824.0,M,,M,,*6F
$GPRMC,081643.000,A,0002.6856,N,03656.0136,E,,,120120,,A*47
$GPGGA,081700.000,0002.6809,N,03655.9307,E,1,9,,1824.0,M,,M,,*69
$GPRMC,081700.000,A,0002.6809,N,03655.9307,E,,,120120,,A*41
$GPGGA,081716.000,0002.6876,N,03655.9206,E,1,10,,1823.0,M,,M,,*59
$GPRMC,081716.000,A,0002.6876,N,03655.9206,E,,,120120,,A*4E
$GPGGA,081732.000,0002.6830,N,03655.8396,E,1,10,,1823.0,M,,M,,*54
$GPRMC,081732.000,A,0002.6830,N,03655.8396,E,,,120120,,A*43
$GPGGA,081748.000,0002.6908,N,03655.7977,E,1,10,,1823.0,M,,M,,*59
$GPRMC,081748.000,A,0002.6908,N,03655.7977,E,,,120120,,A*4E
$GPGGA,081803.000,0002.7058,N,03655.6265,E,1,10,,1823.0,M,,M,,*5D
$GPRMC,081803.000,A,0002.7058,N,03655.6265,E,,,120120,,A*4A
$GPGGA,081820.000,0002.7096,N,03655.5620,E,1,9,,1822.0,M,,M,,*61
$GPRMC,081820.000,A,0002.7096,N,03655.5620,E,,,120120,,A*4F
$GPGGA,081837.000,0002.6835,N,03655.5531,E,1,11,,1822.0,M,,M,,*5D
$GPRMC,081837.000,A,0002.6835,N,03655.5531,E,,,120120,,A*4A
$GPGGA,081853.000,0002.6829,N,03655.5551,E,1,11,,1822.0,M,,M,,*54
$GPRMC,081853.000,A,0002.6829,N,03655.5551,E,,,120120,,A*43
$GPGGA,081909.000,0002.6818,N,03655.5526,E,1,11,,1822.0,M,,M,,*58
$GPRMC,081909.000,A,0002.6818,N,03655.5526,E,,,120120,,A*4F
$GPGGA,081925.000,0002.6781,N,03655.5521,E,1,9,,1822.0,M,,M,,*67
$GPRMC,081925.000,A,0002.6781,N,03655.5521,E,,,120120,,A*49
$GPGGA,081941.000,0002.6548,N,03655.5501,E,1,9,,1822.0,M,,M,,*60
$GPRMC,081941.000,A,0002.6548,N,03655.5501,E,,,120120,,A*4E
$GPGGA,081957.000,0002.6370,N,03655.5508,E,1,8,,1822.0,M,,M,,*62
$GPRMC,081957.000,A,0002.6370,N,03655.5508,E,,,120120,,A*4D
$GPGGA,082013.000,0002.6035,N,03655.5482,E,1,9,,1822.0,M,,M,,*68
$GPRMC,082013.000,A,0002.6035,N,03655.5482,E,,,120120,,A*46
$GPGGA,082032.000,0002.5607,N,03655.5379,E,1,8,,1822.0,M,,M,,*6D
$GPRMC,082032.000,A,0002.5607,N,03655.5379,E,,,120120,,A*42
$GPGGA,082048.000,0002.5460,N,03655.5167,E,1,11,,1821.0,M,,M,,*55
$GPRMC,082048.000,A,0002.5460,N,03655.5167,E,,,120120,,A*41
$GPGGA,082104.000,0002.5439,N,03655.5123,E,1,10,,1821.0,M,,M,,*51
$GPRMC,082104.000,A,0002.5439,N,03655.5123,E,,,120120,,A*44
$GPGGA,082120.000,0002.5438,N,03655.5121,E,1,10,,1821.0,M,,M,,*54
$GPRMC,082120.000,A,0002.5438,N,03655.5121,E,,,120120,,A*41
$GPGGA,082136.000,0002.5443,N,03655.5121,E,1,11,,1821.0,M,,M,,*5E
$GPRMC,082136.000,A,0002.5443,N,03655.5121,E,,,120120,,A*4A
$GPGGA,082152.000,0002.5447,N,03655.5128,E,1,9,,1821.0,M,,M,,*68
$GPRMC,082152.000,A,0002.5447,N,03655.5128,E,,,120120,,A*45
$GPGGA,082208.000,0002.5426,N,03655.4954,E,1,10,,1822.0,M,,M,,*5A
$GPRMC,082208.000,A,0002.5426,N,03655.4954,E,,,120120,,A*4C
$GPGGA,082224.000,0002.5541,N,03655.4729,E,1,9,,1822.0,M,,M,,*68
$GPRMC,082224.000,A,0002.5541,N,03655.4729,E,,,120120,,A*46
$GPGGA,082240.000,0002.5671,N,03655.3995,E,1,8,,1823.0,M,,M,,*64
$GPRMC,082240.000,A,0002.5671,N,03655.3995,E,,,120120,,A*4A
$GPGGA,082256.000,0002.5896,N,03655.3638,E,1,11,,1822.0,M,,M,,*55
$GPRMC,082256.000,A,0002.5896,N,03655.3638,E,,,120120,,A*42
$GPGGA,082312.000,0002.5928,N,03655.3500,E,1,11,,1822.0,M,,M,,*58
$GPRMC,082312.000,A,0002.5928,N,03655.3500,E,,,120120,,A*4F
$GPGGA,082327.000,0002.5992,N,03655.3244,E,1,10,,1822.0,M,,M,,*59
$GPRMC,082327.000,A,0002.5992,N,03655.3244,E,,,120120,,A*4F
$GPGGA,082344.000,0002.6077,N,03655.2960,E,1,9,,1822.0,M,,M,,*69
$GPRMC,082344.000,A,0002.6077,N,03655.2960,E,,,120120,,A*47
$GPGGA,082401.000,0002.6334,N,03655.3134,E,1,9,,1822.0,M,,M,,*63
$GPRMC,082401.000,A,0002.6334,N,03655.3134,E,,,120120,,A*4D
$GPGGA,082417.000,0002.6385,N,03655.3288,E,1,10,,1822.0,M,,M,,*52
$GPRMC,082417.000,A,0002.6385,N,03655.3288,E,,,120120,,A*44
$GPGGA,082433.000,0002.6443,N,03655.3567,E,1,9,,1822.0,M,,M,,*67
$GPRMC,082433.000,A,0002.6443,N,03655.3567,E,,,120120,,A*49
$GPGGA,082449.000,0002.6588,N,03655.3883,E,1,10,,1822.0,M,,M,,*53
$GPRMC,082449.000,A,0002.6588,N,03655.3883,E,,,120120,,A*45
$GPGGA,082505.000,0002.6712,N,03655.4057,E,1,11,,1821.0,M,,M,,*5F
$GPRMC,082505.000,A,0002.6712,N,03655.4057,E,,,120120,,A*4B
$GPGGA,082521.000,0002.6744,N,03655.4100,E,1,11,,1821.0,M,,M,,*59
$GPRMC,082521.000,A,0002.6744,N,03655.4100,E,,,120120,,A*4D
$GPGGA,082536.000,0002.6898,N,03655.4260,E,1,9,,1822.0,M,,M,,*6E
$GPRMC,082536.000,A,0002.6898,N,03655.4260,E,,,120120,,A*40
$GPGGA,082552.000,0002.7292,N,03655.4844,E,1,8,,1822.0,M,,M,,*60
$GPRMC,082552.000,A,0002.7292,N,03655.4844,E,,,120120,,A*4F
$GPGGA,082608.000,0002.7407,N,03655.5132,E,1,10,,1822.0,M,,M,,*56
$GPRMC,082608.000,A,0002.7407,N,03655.5132,E,,,120120,,A*40
$GPGGA,082625.000,0002.7654,N,03655.5077,E,1,10,,1822.0,M,,M,,*5D
$GPRMC,082625.000,A,0002.7654,N,03655.5077,E,,,120120,,A*4B
$GPGGA,082641.000,0002.7881,N,03655.5048,E,1,9,,1822.0,M,,M,,*6D
$GPRMC,082641.000,A,0002.7881,N,03655.5048,E,,,120120,,A*43
$GPGGA,082657.000,0002.8062,N,03655.4954,E,1,11,,1823.0,M,,M,,*5D
$GPRMC,082657.000,A,0002.8062,N,03655.4954,E,,,120120,,A*4B
$GPGGA,082713.000,0002.8283,N,03655.4922,E,1,10,,1823.0,M,,M,,*51
$GPRMC,082713.000,A,0002.8283,N,03655.4922,E,,,120120,,A*46
$GPGGA,082734.000,0002.9056,N,03655.4848,E,1,11,,1823.0,M,,M,,*53
$GPRMC,082734.000,A,0002.9056,N,03655.4848,E,,,120120,,A*45
$GPGGA,082750.000,0003.0281,N,03655.4832,E,1,8,,1822.0,M,,M,,*65
$GPRMC,082750.000,A,0003.0281,N,03655.4832,E,,,120120,,A*4A
$GPGGA,082806.000,0003.0719,N,03655.4862,E,1,9,,1822.0,M,,M,,*69
$GPRMC,082806.000,A,0003.0719,N,03655.4862,E,,,120120,,A*47
$GPGGA,082822.000,0003.0895,N,03655.4853,E,1,9,,1823.0,M,,M,,*67
$GPRMC,082822.000,A,0003.0895,N,03655.4853,E,,,120120,,A*48
$GPGGA,082838.000,0003.1249,N,03655.4949,E,1,9,,1823.0,M,,M,,*6C
$GPRMC,082838.000,A,0003.1249,N,03655.4949,E,,,120120,,A*43
$GPGGA,082853.000,0003.1582,N,03655.4887,E,1,9,,1823.0,M,,M,,*62
$GPRMC,082853.000,A,0003.1582,N,03655.4887,E,,,120120,,A*4D
$GPGGA,082910.000,0003.1894,N,03655.4707,E,1,10,,1822.0,M,,M,,*50
$GPRMC,082910.000,A,0003.1894,N,03655.4707,E,,,120120,,A*46
$GPGGA,082927.000,0003.2859,N,03655.4388,E,1,10,,1821.0,M,,M,,*56
$GPRMC,082927.000,A,0003.2859,N,03655.4388,E,,,120120,,A*43
$GPGGA,082944.000,0003.3374,N,03655.3919,E,1,11,,1821.0,M,,M,,*52
$GPRMC,082944.000,A,0003.3374,N,03655.3919,E,,,120120,,A*46
$GPGGA,083000.000,0003.3677,N,03655.3583,E,1,10,,1821.0,M,,M,,*52
$GPRMC,083000.000,A,0003.3677,N,03655.3583,E,,,120120,,A*47
$GPGGA,083016.000,0003.3606,N,03655.3185,E,1,10,,1821.0,M,,M,,*51
$GPRMC,083016.000,A,0003.3606,N,03655.3185,E,,,120120,,A*44
$GPGGA,083033.000,0003.3402,N,03655.3221,E,1,11,,1820.0,M,,M,,*5D
$GPRMC,083033.000,A,0003.3402,N,03655.3221,E,,,120120,,A*48
$GPGGA,083048.000,0003.3302,N,03655.3285,E,1,11,,1820.0,M,,M,,*58
$GPRMC,083048.000,A,0003.3302,N,03655.3285,E,,,120120,,A*4D
$GPGGA,083106.000,0003.3005,N,03655.3230,E,1,5,,1820.0,M,,M,,*6C
$GPRMC,083106.000,A,0003.3005,N,03655.3230,E,,,120120,,A*4C
$GPGGA,083121.000,0003.3342,N,03655.3182,E,1,10,,1820.0,M,,M,,*57
$GPRMC,083121.000,A,0003.3342,N,03655.3182,E,,,120120,,A*43
$GPGGA,083136.000,0003.3224,N,03655.3281,E,1,10,,1820.0,M,,M,,*50
$GPRMC,083136.000,A,0003.3224,N,03655.3281,E,,,120120,,A*44
$GPGGA,083151.000,0003.3225,N,03655.3361,E,1,11,,1761.0,M,,M,,*54
$GPRMC,083151.000,A,0003.3225,N,03655.3361,E,,,120120,,A*4B
$GPGGA,083205.000,0003.3232,N,03655.3324,E,1,10,,1761.0,M,,M,,*50
$GPRMC,083205.000,A,0003.3232,N,03655.3324,E,,,120120,,A*4E
$GPGGA,083221.000,0003.3262,N,03655.3304,E,1,11,,1762.0,M,,M,,*53
$GPRMC,083221.000,A,0003.3262,N,03655.3304,E,,,120120,,A*4F
$GPGGA,083237.000,0003.3276,N,03655.3297,E,1,11,,1762.0,M,,M,,*5A
$GPRMC,083237.000,A,0003.3276,N,03655.3297,E,,,120120,,A*46
$GPGGA,083253.000,0003.3246,N,03655.3413,E,1,8,,1762.0,M,,M,,*69
$GPRMC,083253.000,A,0003.3246,N,03655.3413,E,,,120120,,A*4D
$GPGGA,083309.000,0003.3246,N,03655.3455,E,1,7,,1762.0,M,,M,,*6A
$GPRMC,083309.000,A,0003.3246,N,03655.3455,E,,,120120,,A*41
$GPGGA,083325.000,0003.3234,N,03655.3535,E,1,8,,1762.0,M,,M,,*69
$GPRMC,083325.000,A,0003.3234,N,03655.3535,E,,,120120,,A*4D
$GPGGA,083341.000,0003.3221,N,03655.3560,E,1,8,,1762.0,M,,M,,*6F
$GPRMC,083341.000,A,0003.3221,N,03655.3560,E,,,120120,,A*4B
$GPGGA,083356.000,0003.3215,N,03655.3553,E,1,8,,1762.0,M,,M,,*6E
$GPRMC,083356.000,A,0003.3215,N,03655.3553,E,,,120120,,A*4A
$GPGGA,083413.000,0003.3314,N,03655.3416,E,1,6,,1762.0,M,,M,,*66
$GPRMC,083413.000,A,0003.3314,N,03655.3416,E,,,120120,,A*4C
$GPGGA,083428.000,0003.3299,N,03655.3459,E,1,8,,1762.0,M,,M,,*6F
$GPRMC,083428.000,A,0003.3299,N,03655.3459,E,,,120120,,A*4B
$GPGGA,083443.000,0003.3295,N,03655.3507,E,1,11,,1762.0,M,,M,,*5C
$GPRMC,083443.000,A,0003.3295,N,03655.3507,E,,,120120,,A*40
$GPGGA,083451.000,0003.3324,N,03655.3500,E,1,11,,1762.0,M,,M,,*53
$GPRMC,083451.000,A,0003.3324,N,03655.3500,E,,,120120,,A*4F
$GPGGA,083507.000,0003.3329,N,03655.3484,E,1,11,,1762.0,M,,M,,*51
$GPRMC,083507.000,A,0003.3329,N,03655.3484,E,,,120120,,A*4D
$GPGGA,083523.000,0003.3303,N,03655.3459,E,1,11,,1763.0,M,,M,,*5E
$GPRMC,083523.000,A,0003.3303,N,03655.3459,E,,,120120,,A*43
$GPGGA,083539.000,0003.3287,N,03655.3493,E,1,9,,1763.0,M,,M,,*67
$GPRMC,083539.000,A,0003.3287,N,03655.3493,E,,,120120,,A*43
$GPGGA,083555.000,0003.3299,N,03655.3400,E,1,11,,1763.0,M,,M,,*51
$GPRMC,083555.000,A,0003.3299,N,03655.3400,E,,,120120,,A*4C
$GPGGA,083611.000,0003.3329,N,03655.3265,E,1,11,,1763.0,M,,M,,*5D
$GPRMC,083611.000,A,0003.3329,N,03655.3265,E,,,120120,,A*40
$GPGGA,083627.000,0003.3311,N,03655.3212,E,1,10,,1763.0,M,,M,,*52
$GPRMC,083627.000,A,0003.3311,N,03655.3212,E,,,120120,,A*4E
$GPGGA,083643.000,0003.3329,N,03655.3214,E,1,9,,1763.0,M,,M,,*65
$GPRMC,083643.000,A,0003.3329,N,03655.3214,E,,,120120,,A*41
$GPGGA,083659.000,0003.3331,N,03655.3212,E,1,11,,1763.0,M,,M,,*58
$GPRMC,083659.000,A,0003.3331,N,03655.3212,E,,,120120,,A*45
$GPGGA,083715.000,0003.3330,N,03655.3226,E,1,10,,1763.0,M,,M,,*56
$GPRMC,083715.000,A,0003.3330,N,03655.3226,E,,,120120,,A*4A
$GPGGA,083731.000,0003.3384,N,03655.3221,E,1,10,,1763.0,M,,M,,*58
$GPRMC,083731.000,A,0003.3384,N,03655.3221,E,,,120120,,A*44
$GPGGA,083747.000,0003.3355,N,03655.3230,E,1,10,,1764.0,M,,M,,*52
$GPRMC,083747.000,A,0003.3355,N,03655.3230,E,,,120120,,A*49
$GPGGA,083803.000,0003.3313,N,03655.3212,E,1,10,,1764.0,M,,M,,*5F
$GPRMC,083803.000,A,0003.3313,N,03655.3212,E,,,120120,,A*44
$GPGGA,083820.000,0003.3338,N,03655.3198,E,1,10,,1764.0,M,,M,,*56
$GPRMC,083820.000,A,0003.3338,N,03655.3198,E,,,120120,,A*4D
$GPGGA,083836.000,0003.3395,N,03655.3246,E,1,9,,1764.0,M,,M,,*6E
$GPRMC,083836.000,A,0003.3395,N,03655.3246,E,,,120120,,A*4D
$GPGGA,083852.000,0003.3432,N,03655.3271,E,1,9,,1764.0,M,,M,,*62
$GPRMC,083852.000,A,0003.3432,N,03655.3271,E,,,120120,,A*41
$GPGGA,083907.000,0003.3424,N,03655.3326,E,1,10,,1764.0,M,,M,,*5F
$GPRMC,083907.000,A,0003.3424,N,03655.3326,E,,,120120,,A*44
$GPGGA,083922.000,0003.3413,N,03655.3308,E,1,11,,1764.0,M,,M,,*51
$GPRMC,083922.000,A,0003.3413,N,03655.3308,E,,,120120,,A*4B
$GPGGA,083937.000,0003.3413,N,03655.3304,E,1,11,,1764.0,M,,M,,*59
$GPRMC,083937.000,A,0003.3413,N,03655.3304,E,,,120120,,A*43
$GPGGA,083946.000,0003.3455,N,03655.3342,E,1,11,,1764.0,M,,M,,*5F
$GPRMC,083946.000,A,0003.3455,N,03655.3342,E,,,120120,,A*45
$GPGGA,084002.000,0003.3532,N,03655.3459,E,1,10,,1764.0,M,,M,,*5D
$GPRMC,084002.000,A,0003.3532,N,03655.3459,E,,,120120,,A*46
$GPGGA,084018.000,0003.3535,N,03655.3496,E,1,10,,1764.0,M,,M,,*52
$GPRMC,084018.000,A,0003.3535,N,03655.3496,E,,,120120,,A*49
$GPGGA,084034.000,0003.3542,N,03655.3498,E,1,11,,1764.0,M,,M,,*53
$GPRMC,084034.000,A,0003.3542,N,03655.3498,E,,,120120,,A*49
$GPGGA,084050.000,0003.3548,N,03655.3489,E,1,10,,1764.0,M,,M,,*5A
$GPRMC,084050.000,A,0003.3548,N,03655.3489,E,,,120120,,A*41
$GPGGA,084106.000,0003.3549,N,03655.3500,E,1,11,,1765.0,M,,M,,*59
$GPRMC,084106.000,A,0003.3549,N,03655.3500,E,,,120120,,A*42
$GPGGA,084122.000,0003.3538,N,03655.3503,E,1,10,,1765.0,M,,M,,*5B
$GPRMC,084122.000,A,0003.3538,N,03655.3503,E,,,120120,,A*41
$GPGGA,084138.000,0003.3560,N,03655.3493,E,1,9,,1765.0,M,,M,,*6D
$GPRMC,084138.000,A,0003.3560,N,03655.3493,E,,,120120,,A*4F
$GPGGA,084154.000,0003.3516,N,03655.3477,E,1,9,,1765.0,M,,M,,*6C
$GPRMC,084154.000,A,0003.3516,N,03655.3477,E,,,120120,,A*4E
$GPGGA,084210.000,0003.3566,N,03655.3496,E,1,11,,1765.0,M,,M,,*5E
$GPRMC,084210.000,A,0003.3566,N,03655.3496,E,,,120120,,A*45
$GPGGA,084226.000,0003.3558,N,03655.3503,E,1,10,,1765.0,M,,M,,*5A
$GPRMC,084226.000,A,0003.3558,N,03655.3503,E,,,120120,,A*40
$GPGGA,084242.000,0003.3543,N,03655.3482,E,1,11,,1765.0,M,,M,,*5B
$GPRMC,084242.000,A,0003.3543,N,03655.3482,E,,,120120,,A*40
$GPGGA,084258.000,0003.3532,N,03655.3480,E,1,11,,1765.0,M,,M,,*54
$GPRMC,084258.000,A,0003.3532,N,03655.3480,E,,,120120,,A*4F
$GPGGA,084314.000,0003.3577,N,03655.3475,E,1,11,,1765.0,M,,M,,*56
$GPRMC,084314.000,A,0003.3577,N,03655.3475,E,,,120120,,A*4D
$GPGGA,084330.000,0003.3554,N,03655.3491,E,1,11,,1765.0,M,,M,,*5B
$GPRMC,084330.000,A,0003.3554,N,03655.3491,E,,,120120,,A*40
$GPGGA,084346.000,0003.3574,N,03655.3480,E,1,11,,1766.0,M,,M,,*5B
$GPRMC,084346.000,A,0003.3574,N,03655.3480,E,,,120120,,A*43
$GPGGA,084402.000,0003.3552,N,03655.3482,E,1,10,,1766.0,M,,M,,*5B
$GPRMC,084402.000,A,0003.3552,N,03655.3482,E,,,120120,,A*42
$GPGGA,084418.000,0003.3564,N,03655.3477,E,1,10,,1766.0,M,,M,,*5F
$GPRMC,084418.000,A,0003.3564,N,03655.3477,E,,,120120,,A*46
$GPGGA,084434.000,0003.3565,N,03655.3475,E,1,10,,1767.0,M,,M,,*53
$GPRMC,084434.000,A,0003.3565,N,03655.3475,E,,,120120,,A*4B
$GPGGA,084450.000,0003.3559,N,03655.3473,E,1,10,,1767.0,M,,M,,*58
$GPRMC,084450.000,A,0003.3559,N,03655.3473,E,,,120120,,A*40
$GPGGA,084506.000,0003.3553,N,03655.3468,E,1,10,,1767.0,M,,M,,*5A
$GPRMC,084506.000,A,0003.3553,N,03655.3468,E,,,120120,,A*42
$GPGGA,084522.000,0003.3540,N,03655.3464,E,1,10,,1767.0,M,,M,,*52
$GPRMC,084522.000,A,0003.3540,N,03655.3464,E,,,120120,,A*4A
$GPGGA,084538.000,0003.3538,N,03655.3466,E,1,10,,1767.0,M,,M,,*54
$GPRMC,084538.000,A,0003.3538,N,03655.3466,E,,,120120,,A*4C
$GPGGA,084554.000,0003.3544,N,03655.3468,E,1,10,,1767.0,M,,M,,*5B
$GPRMC,084554.000,A,0003.3544,N,03655.3468,E,,,120120,,A*43
$GPGGA,084609.000,0003.3546,N,03655.3468,E,1,10,,1767.0,M,,M,,*52
$GPRMC,084609.000,A,0003.3546,N,03655.3468,E,,,120120,,A*4A
$GPGGA,084629.000,0003.3579,N,03655.3468,E,1,10,,1767.0,M,,M,,*5C
$GPRMC,084629.000,A,0003.3579,N,03655.3468,E,,,120120,,A*44
$GPGGA,084645.000,0003.3521,N,03655.3464,E,1,10,,1767.0,M,,M,,*57
$GPRMC,084645.000,A,0003.3521,N,03655.3464,E,,,120120,,A*4F
$GPGGA,084701.000,0003.3580,N,03655.3466,E,1,9,,1767.0,M,,M,,*67
$GPRMC,084701.000,A,0003.3580,N,03655.3466,E,,,120120,,A*47
$GPGGA,084717.000,0003.3627,N,03655.3496,E,1,9,,1767.0,M,,M,,*61
$GPRMC,084717.000,A,0003.3627,N,03655.3496,E,,,120120,,A*41
$GPGGA,084732.000,0003.3559,N,03655.3487,E,1,8,,1767.0,M,,M,,*6D
$GPRMC,084732.000,A,0003.3559,N,03655.3487,E,,,120120,,A*4C
$GPGGA,084750.000,0003.3580,N,03655.3491,E,1,9,,1768.0,M,,M,,*64
$GPRMC,084750.000,A,0003.3580,N,03655.3491,E,,,120120,,A*4B
$GPGGA,084806.000,0003.3580,N,03655.3487,E,1,8,,1768.0,M,,M,,*6E
$GPRMC,084806.000,A,0003.3580,N,03655.3487,E,,,120120,,A*40
$GPGGA,084822.000,0003.3573,N,03655.3491,E,1,9,,1768.0,M,,M,,*62
$GPRMC,084822.000,A,0003.3573,N,03655.3491,E,,,120120,,A*4D
$GPGGA,084838.000,0003.3549,N,03655.3480,E,1,8,,1768.0,M,,M,,*61
$GPRMC,084838.000,A,0003.3549,N,03655.3480,E,,,120120,,A*4F
$GPGGA,084854.000,0003.3553,N,03655.3482,E,1,9,,1768.0,M,,M,,*63
$GPRMC,084854.000,A,0003.3553,N,03655.3482,E,,,120120,,A*4C
$GPGGA,084910.000,0003.3566,N,03655.3487,E,1,11,,1768.0,M,,M,,*58
$GPRMC,084910.000,A,0003.3566,N,03655.3487,E,,,120120,,A*4E
$GPGGA,084926.000,0003.3570,N,03655.3487,E,1,9,,1768.0,M,,M,,*63
$GPRMC,084926.000,A,0003.3570,N,03655.3487,E,,,120120,,A*4C
$GPGGA,084942.000,0003.3580,N,03655.3496,E,1,9,,1768.0,M,,M,,*6E
$GPRMC,084942.000,A,0003.3580,N,03655.3496,E,,,120120,,A*41
$GPGGA,084958.000,0003.3572,N,03655.3480,E,1,11,,1768.0,M,,M,,*56
$GPRMC,084958.000,A,0003.3572,N,03655.3480,E,,,120120,,A*40
$GPGGA,085014.000,0003.3571,N,03655.3480,E,1,9,,1768.0,M,,M,,*6C
$GPRMC,085014.000,A,0003.3571,N,03655.3480,E,,,120120,,A*43
$GPGGA,085030.000,0003.3556,N,03655.3459,E,1,9,,1768.0,M,,M,,*6B
$GPRMC,085030.000,A,0003.3556,N,03655.3459,E,,,120120,,A*44
$GPGGA,085046.000,0003.3560,N,03655.3466,E,1,8,,1768.0,M,,M,,*62
$GPRMC,085046.000,A,0003.3560,N,03655.3466,E,,,120120,,A*4C
$GPGGA,085102.000,0003.3553,N,03655.3450,E,1,8,,1768.0,M,,M,,*66
$GPRMC,085102.000,A,0003.3553,N,03655.3450,E,,,120120,,A*48
$GPGGA,085118.000,0003.3556,N,03655.3448,E,1,9,,1768.0,M,,M,,*60
$GPRMC,085118.000,A,0003.3556,N,03655.3448,E,,,120120,,A*4F
$GPGGA,085134.000,0003.3552,N,03655.3459,E,1,8,,1768.0,M,,M,,*6B
$GPRMC,085134.000,A,0003.3552,N,03655.3459,E,,,120120,,A*45
$GPGGA,085150.000,0003.3546,N,03655.3450,E,1,10,,1768.0,M,,M,,*5C
$GPRMC,085150.000,A,0003.3546,N,03655.3450,E,,,120120,,A*4B
$GPGGA,085206.000,0003.3513,N,03655.3441,E,1,9,,1768.0,M,,M,,*64
$GPRMC,085206.000,A,0003.3513,N,03655.3441,E,,,120120,,A*4B
$GPGGA,085222.000,0003.3515,N,03655.3445,E,1,8,,1768.0,M,,M,,*61
$GPRMC,085222.000,A,0003.3515,N,03655.3445,E,,,120120,,A*4F
$GPGGA,085238.000,0003.3505,N,03655.3448,E,1,11,,1768.0,M,,M,,*5E
$GPRMC,085238.000,A,0003.3505,N,03655.3448,E,,,120120,,A*48
$GPGGA,085254.000,0003.3503,N,03655.3436,E,1,8,,1768.0,M,,M,,*63
$GPRMC,085254.000,A,0003.3503,N,03655.3436,E,,,120120,,A*4D
$GPGGA,085310.000,0003.3492,N,03655.3441,E,1,10,,1768.0,M,,M,,*52
$GPRMC,085310.000,A,0003.3492,N,03655.3441,E,,,120120,,A*45
$GPGGA,085326.000,0003.3497,N,03655.3439,E,1,10,,1768.0,M,,M,,*5D
$GPRMC,085326.000,A,0003.3497,N,03655.3439,E,,,120120,,A*4A
$GPGGA,085342.000,0003.3498,N,03655.3448,E,1,9,,1768.0,M,,M,,*6E
$GPRMC,085342.000,A,0003.3498,N,03655.3448,E,,,120120,,A*41
$GPGGA,085358.000,0003.3495,N,03655.3448,E,1,9,,1768.0,M,,M,,*68
$GPRMC,085358.000,A,0003.3495,N,03655.3448,E,,,120120,,A*47
$GPGGA,085414.000,0003.3511,N,03655.3455,E,1,8,,1768.0,M,,M,,*67
$GPRMC,085414.000,A,0003.3511,N,03655.3455,E,,,120120,,A*49
$GPGGA,085430.000,0003.3513,N,03655.3450,E,1,9,,1768.0,M,,M,,*67
$GPRMC,085430.000,A,0003.3513,N,03655.3450,E,,,120120,,A*48
$GPGGA,085446.000,0003.3500,N,03655.3448,E,1,7,,1768.0,M,,M,,*63
$GPRMC,085446.000,A,0003.3500,N,03655.3448,E,,,120120,,A*42
$GPGGA,085501.000,0003.3528,N,03655.3475,E,1,7,,1768.0,M,,M,,*65
$GPRMC,085501.000,A,0003.3528,N,03655.3475,E,,,120120,,A*44
$GPGGA,085516.000,0003.3510,N,03655.3477,E,1,8,,1768.0,M,,M,,*65
$GPRMC,085516.000,A,0003.3510,N,03655.3477,E,,,120120,,A*4B
$GPGGA,085534.000,0003.3501,N,03655.3455,E,1,8,,1768.0,M,,M,,*65
$GPRMC,085534.000,A,0003.3501,N,03655.3455,E,,,120120,,A*4B
$GPGGA,085550.000,0003.3507,N,03655.3457,E,1,9,,1768.0,M,,M,,*62
$GPRMC,085550.000,A,0003.3507,N,03655.3457,E,,,120120,,A*4D
$GPGGA,085606.000,0003.3523,N,03655.3466,E,1,9,,1768.0,M,,M,,*66
$GPRMC,085606.000,A,0003.3523,N,03655.3466,E,,,120120,,A*49
$GPGGA,085622.000,0003.3536,N,03655.3503,E,1,9,,1769.0,M,,M,,*67
$GPRMC,085622.000,A,0003.3536,N,03655.3503,E,,,120120,,A*49
$GPGGA,085638.000,0003.3533,N,03655.3491,E,1,10,,1769.0,M,,M,,*5B
$GPRMC,085638.000,A,0003.3533,N,03655.3491,E,,,120120,,A*4D
$GPGGA,085654.000,0003.3532,N,03655.3491,E,1,10,,1769.0,M,,M,,*50
$GPRMC,085654.000,A,0003.3532,N,03655.3491,E,,,120120,,A*46
$GPGGA,085710.000,0003.3502,N,03655.3487,E,1,7,,1769.0,M,,M,,*63
$GPRMC,085710.000,A,0003.3502,N,03655.3487,E,,,120120,,A*43
$GPGGA,085726.000,0003.3539,N,03655.3484,E,1,9,,1769.0,M,,M,,*63
$GPRMC,085726.000,A,0003.3539,N,03655.3484,E,,,120120,,A*4D
$GPGGA,085742.000,0003.3535,N,03655.3477,E,1,9,,1769.0,M,,M,,*61
$GPRMC,085742.000,A,0003.3535,N,03655.3477,E,,,120120,,A*4F
$GPGGA,085758.000,0003.3561,N,03655.3496,E,1,10,,1769.0,M,,M,,*5C
$GPRMC,085758.000,A,0003.3561,N,03655.3496,E,,,120120,,A*4A
$GPGGA,085814.000,0003.3561,N,03655.3493,E,1,10,,1769.0,M,,M,,*5E
$GPRMC,085814.000,A,0003.3561,N,03655.3493,E,,,120120,,A*48
$GPGGA,085830.000,0003.3572,N,03655.3496,E,1,10,,1769.0,M,,M,,*5F
$GPRMC,085830.000,A,0003.3572,N,03655.3496,E,,,120120,,A*49
$GPGGA,085846.000,0003.3567,N,03655.3491,E,1,10,,1769.0,M,,M,,*5D
$GPRMC,085846.000,A,0003.3567,N,03655.3491,E,,,120120,,A*4B
$GPGGA,085902.000,0003.3505,N,03655.3448,E,1,9,,1769.0,M,,M,,*64
$GPRMC,085902.000,A,0003.3505,N,03655.3448,E,,,120120,,A*4A
$GPGGA,085918.000,0003.3537,N,03655.3452,E,1,10,,1769.0,M,,M,,*5D
$GPRMC,085918.000,A,0003.3537,N,03655.3452,E,,,120120,,A*4B
$GPGGA,085934.000,0003.3559,N,03655.3441,E,1,9,,1769.0,M,,M,,*61
$GPRMC,085934.000,A,0003.3559,N,03655.3441,E,,,120120,,A*4F
$GPGGA,085950.000,0003.3552,N,03655.3461,E,1,10,,1769.0,M,,M,,*52
$GPRMC,085950.000,A,0003.3552,N,03655.3461,E,,,120120,,A*44
$GPGGA,090006.000,0003.3554,N,03655.3461,E,1,10,,1769.0,M,,M,,*5A
$GPRMC,090006.000,A,0003.3554,N,03655.3461,E,,,120120,,A*4C
$GPGGA,090022.000,0003.3552,N,03655.3459,E,1,10,,1769.0,M,,M,,*51
$GPRMC,090022.000,A,0003.3552,N,03655.3459,E,,,120120,,A*47
$GPGGA,090038.000,0003.3549,N,03655.3466,E,1,9,,1769.0,M,,M,,*64
$GPRMC,090038.000,A,0003.3549,N,03655.3466,E,,,120120,,A*4A
$GPGGA,090054.000,0003.3563,N,03655.3484,E,1,9,,1769.0,M,,M,,*6A
$GPRMC,090054.000,A,0003.3563,N,03655.3484,E,,,120120,,A*44
$GPGGA,090110.000,0003.3563,N,03655.3484,E,1,9,,1769.0,M,,M,,*6B
$GPRMC,090110.000,A,0003.3563,N,03655.3484,E,,,120120,,A*45
$GPGGA,090126.000,0003.3556,N,03655.3489,E,1,8,,1769.0,M,,M,,*64
$GPRMC,090126.000,A,0003.3556,N,03655.3489,E,,,120120,,A*4B
$GPGGA,090142.000,0003.3614,N,03655.3491,E,1,10,,1769.0,M,,M,,*53
$GPRMC,090142.000,A,0003.3614,N,03655.3491,E,,,120120,,A*45
$GPGGA,090159.000,0003.3745,N,03655.3516,E,1,7,,1769.0,M,,M,,*64
$GPRMC,090159.000,A,0003.3745,N,03655.3516,E,,,120120,,A*44
$GPGGA,090214.000,0003.3611,N,03655.3461,E,1,11,,1769.0,M,,M,,*58
$GPRMC,090214.000,A,0003.3611,N,03655.3461,E,,,120120,,A*4F
$GPGGA,090229.000,0003.3597,N,03655.3457,E,1,11,,1770.0,M,,M,,*56
$GPRMC,090229.000,A,0003.3597,N,03655.3457,E,,,120120,,A*49
$GPGGA,090244.000,0003.3601,N,03655.3464,E,1,11,,1789.0,M,,M,,*57
$GPRMC,090244.000,A,0003.3601,N,03655.3464,E,,,120120,,A*4E
$GPGGA,090259.000,0003.3608,N,03655.3482,E,1,11,,1789.0,M,,M,,*5A
$GPRMC,090259.000,A,0003.3608,N,03655.3482,E,,,120120,,A*43
$GPGGA,090314.000,0003.3615,N,03655.3496,E,1,11,,1789.0,M,,M,,*5B
$GPRMC,090314.000,A,0003.3615,N,03655.3496,E,,,120120,,A*42
$GPGGA,090321.000,0003.3628,N,03655.3503,E,1,11,,1789.0,M,,M,,*5E
$GPRMC,090321.000,A,0003.3628,N,03655.3503,E,,,120120,,A*47
$GPGGA,090336.000,0003.3607,N,03655.3496,E,1,11,,1789.0,M,,M,,*58
$GPRMC,090336.000,A,0003.3607,N,03655.3496,E,,,120120,,A*41
$GPGGA,090351.000,0003.3610,N,03655.3493,E,1,11,,1789.0,M,,M,,*5A
$GPRMC,090351.000,A,0003.3610,N,03655.3493,E,,,120120,,A*43
$GPGGA,090406.000,0003.3610,N,03655.3489,E,1,11,,1789.0,M,,M,,*54
$GPRMC,090406.000,A,0003.3610,N,03655.3489,E,,,120120,,A*4D
$GPGGA,090421.000,0003.3607,N,03655.3487,E,1,11,,1789.0,M,,M,,*59
$GPRMC,090421.000,A,0003.3607,N,03655.3487,E,,,120120,,A*40
$GPGGA,090436.000,0003.3608,N,03655.3489,E,1,11,,1789.0,M,,M,,*5E
$GPRMC,090436.000,A,0003.3608,N,03655.3489,E,,,120120,,A*47
$GPGGA,090451.000,0003.3610,N,03655.3489,E,1,11,,1789.0,M,,M,,*56
$GPRMC,090451.000,A,0003.3610,N,03655.3489,E,,,120120,,A*4F
$GPGGA,090506.000,0003.3617,N,03655.3489,E,1,11,,1789.0,M,,M,,*52
$GPRMC,090506.000,A,0003.3617,N,03655.3489,E,,,120120,,A*4B
$GPGGA,090521.000,0003.3615,N,03655.3489,E,1,11,,1788.0,M,,M,,*54
$GPRMC,090521.000,A,0003.3615,N,03655.3489,E,,,120120,,A*4C
$GPGGA,090536.000,0003.3617,N,03655.3491,E,1,11,,1788.0,M,,M,,*59
$GPRMC,090536.000,A,0003.3617,N,03655.3491,E,,,120120,,A*41
$GPGGA,090551.000,0003.3615,N,03655.3491,E,1,11,,1788.0,M,,M,,*5A
$GPRMC,090551.000,A,0003.3615,N,03655.3491,E,,,120120,,A*42
$GPGGA,090606.000,0003.3603,N,03655.3473,E,1,10,,1788.0,M,,M,,*51
$GPRMC,090606.000,A,0003.3603,N,03655.3473,E,,,120120,,A*48
$GPGGA,090611.000,0003.3604,N,03655.3471,E,1,11,,1788.0,M,,M,,*53
$GPRMC,090611.000,A,0003.3604,N,03655.3471,E,,,120120,,A*4B
$GPGGA,090627.000,0003.3682,N,03655.3457,E,1,9,,1788.0,M,,M,,*65
$GPRMC,090627.000,A,0003.3682,N,03655.3457,E,,,120120,,A*44
$GPGGA,090643.000,0003.3705,N,03655.3475,E,1,9,,1788.0,M,,M,,*69
$GPRMC,090643.000,A,0003.3705,N,03655.3475,E,,,120120,,A*48
$GPGGA,090659.000,0003.3699,N,03655.3482,E,1,10,,1788.0,M,,M,,*56
$GPRMC,090659.000,A,0003.3699,N,03655.3482,E,,,120120,,A*4F
$GPGGA,090715.000,0003.3713,N,03655.3471,E,1,10,,1788.0,M,,M,,*50
$GPRMC,090715.000,A,0003.3713,N,03655.3471,E,,,120120,,A*49
$GPGGA,090731.000,0003.3705,N,03655.3468,E,1,11,,1788.0,M,,M,,*58
$GPRMC,090731.000,A,0003.3705,N,03655.3468,E,,,120120,,A*40
$GPGGA,090754.000,0003.3695,N,03655.3475,E,1,11,,1788.0,M,,M,,*5F
$GPRMC,090754.000,A,0003.3695,N,03655.3475,E,,,120120,,A*47
$GPGGA,090810.000,0003.3696,N,03655.3477,E,1,11,,1788.0,M,,M,,*51
$GPRMC,090810.000,A,0003.3696,N,03655.3477,E,,,120120,,A*49
$GPGGA,090826.000,0003.3689,N,03655.3471,E,1,10,,1788.0,M,,M,,*5D
$GPRMC,090826.000,A,0003.3689,N,03655.3471,E,,,120120,,A*44
$GPGGA,090842.000,0003.3691,N,03655.3475,E,1,10,,1788.0,M,,M,,*52
$GPRMC,090842.000,A,0003.3691,N,03655.3475,E,,,120120,,A*4B
$GPGGA,090858.000,0003.3693,N,03655.3477,E,1,10,,1788.0,M,,M,,*59
$GPRMC,090858.000,A,0003.3693,N,03655.3477,E,,,120120,,A*40
$GPGGA,090914.000,0003.3694,N,03655.3480,E,1,9,,1788.0,M,,M,,*67
$GPRMC,090914.000,A,0003.3694,N,03655.3480,E,,,120120,,A*46
$GPGGA,090930.000,0003.3691,N,03655.3471,E,1,11,,1788.0,M,,M,,*53
$GPRMC,090930.000,A,0003.3691,N,03655.3471,E,,,120120,,A*4B
$GPGGA,090946.000,0003.3695,N,03655.3475,E,1,10,,1788.0,M,,M,,*53
$GPRMC,090946.000,A,0003.3695,N,03655.3475,E,,,120120,,A*4A
$GPGGA,091002.000,0003.3707,N,03655.3496,E,1,9,,1788.0,M,,M,,*64
$GPRMC,091002.000,A,0003.3707,N,03655.3496,E,,,120120,,A*45
$GPGGA,091018.000,0003.3689,N,03655.3477,E,1,9,,1788.0,M,,M,,*67
$GPRMC,091018.000,A,0003.3689,N,03655.3477,E,,,120120,,A*46
$GPGGA,091034.000,0003.3691,N,03655.3477,E,1,10,,1788.0,M,,M,,*58
$GPRMC,091034.000,A,0003.3691,N,03655.3477,E,,,120120,,A*41
$GPGGA,091050.000,0003.3691,N,03655.3475,E,1,10,,1787.0,M,,M,,*57
$GPRMC,091050.000,A,0003.3691,N,03655.3475,E,,,120120,,A*41
$GPGGA,091106.000,0003.3699,N,03655.3482,E,1,9,,1787.0,M,,M,,*6D
$GPRMC,091106.000,A,0003.3699,N,03655.3482,E,,,120120,,A*43
$GPGGA,091123.000,0003.3690,N,03655.3493,E,1,10,,1787.0,M,,M,,*5B
$GPRMC,091123.000,A,0003.3690,N,03655.3493,E,,,120120,,A*4D
$GPGGA,091139.000,0003.3687,N,03655.3482,E,1,10,,1787.0,M,,M,,*56
$GPRMC,091139.000,A,0003.3687,N,03655.3482,E,,,120120,,A*40
$GPGGA,091155.000,0003.3672,N,03655.3484,E,1,11,,1787.0,M,,M,,*51
$GPRMC,091155.000,A,0003.3672,N,03655.3484,E,,,120120,,A*46
$GPGGA,091211.000,0003.3681,N,03655.3553,E,1,11,,1787.0,M,,M,,*55
$GPRMC,091211.000,A,0003.3681,N,03655.3553,E,,,120120,,A*42
$GPGGA,091227.000,0003.3517,N,03655.3917,E,1,10,,1787.0,M,,M,,*51
$GPRMC,091227.000,A,0003.3517,N,03655.3917,E,,,120120,,A*47
$GPGGA,091246.000,0003.3710,N,03655.3986,E,1,11,,1787.0,M,,M,,*5A
$GPRMC,091246.000,A,0003.3710,N,03655.3986,E,,,120120,,A*4D
$GPGGA,091302.000,0003.4149,N,03655.3981,E,1,10,,1787.0,M,,M,,*50
$GPRMC,091302.000,A,0003.4149,N,03655.3981,E,,,120120,,A*46
$GPGGA,091318.000,0003.4272,N,03655.3903,E,1,11,,1787.0,M,,M,,*5B
$GPRMC,091318.000,A,0003.4272,N,03655.3903,E,,,120120,,A*4C
$GPGGA,091334.000,0003.4267,N,03655.3892,E,1,11,,1787.0,M,,M,,*58
$GPRMC,091334.000,A,0003.4267,N,03655.3892,E,,,120120,,A*4F
$GPGGA,091350.000,0003.4261,N,03655.3896,E,1,11,,1787.0,M,,M,,*58
$GPRMC,091350.000,A,0003.4261,N,03655.3896,E,,,120120,,A*4F
$GPGGA,091406.000,0003.4263,N,03655.3894,E,1,11,,1787.0,M,,M,,*5C
$GPRMC,091406.000,A,0003.4263,N,03655.3894,E,,,120120,,A*4B
$GPGGA,091422.000,0003.4259,N,03655.3899,E,1,11,,1787.0,M,,M,,*5E
$GPRMC,091422.000,A,0003.4259,N,03655.3899,E,,,120120,,A*49
$GPGGA,091438.000,0003.4257,N,03655.3899,E,1,10,,1787.0,M,,M,,*5A
$GPRMC,091438.000,A,0003.4257,N,03655.3899,E,,,120120,,A*4C
$GPGGA,091454.000,0003.4264,N,03655.3892,E,1,10,,1787.0,M,,M,,*5B
$GPRMC,091454.000,A,0003.4264,N,03655.3892,E,,,120120,,A*4D
$GPGGA,091510.000,0003.4266,N,03655.3894,E,1,10,,1787.0,M,,M,,*5E
$GPRMC,091510.000,A,0003.4266,N,03655.3894,E,,,120120,,A*48
$GPGGA,091526.000,0003.4255,N,03655.3892,E,1,11,,1787.0,M,,M,,*5C
$GPRMC,091526.000,A,0003.4255,N,03655.3892,E,,,120120,,A*4B
$GPGGA,091542.000,0003.4254,N,03655.3887,E,1,11,,1787.0,M,,M,,*5B
$GPRMC,091542.000,A,0003.4254,N,03655.3887,E,,,120120,,A*4C
$GPGGA,091558.000,0003.4273,N,03655.3901,E,1,11,,1787.0,M,,M,,*5A
$GPRMC,091558.000,A,0003.4273,N,03655.3901,E,,,120120,,A*4D
$GPGGA,091614.000,0003.4254,N,03655.3885,E,1,11,,1787.0,M,,M,,*59
$GPRMC,091614.000,A,0003.4254,N,03655.3885,E,,,120120,,A*4E
$GPGGA,091701.000,0003.4258,N,03655.3892,E,1,11,,1787.0,M,,M,,*56
$GPRMC,091701.000,A,0003.4258,N,03655.3892,E,,,120120,,A*41
$GPGGA,091717.000,0003.4256,N,03655.3896,E,1,11,,1787.0,M,,M,,*5B
$GPRMC,091717.000,A,0003.4256,N,03655.3896,E,,,120120,,A*4C
$GPGGA,091733.000,0003.4255,N,03655.3903,E,1,10,,1787.0,M,,M,,*52
$GPRMC,091733.000,A,0003.4255,N,03655.3903,E,,,120120,,A*44
$GPGGA,091748.000,0003.4270,N,03655.3901,E,1,10,,1787.0,M,,M,,*5B
$GPRMC,091748.000,A,0003.4270,N,03655.3901,E,,,120120,,A*4D
$GPGGA,091805.000,0003.4256,N,03655.3896,E,1,11,,1788.0,M,,M,,*58
$GPRMC,091805.000,A,0003.4256,N,03655.3896,E,,,120120,,A*40
$GPGGA,091821.000,0003.4255,N,03655.3901,E,1,11,,1788.0,M,,M,,*52
$GPRMC,091821.000,A,0003.4255,N,03655.3901,E,,,120120,,A*4A
$GPGGA,091837.000,0003.4264,N,03655.3885,E,1,11,,1788.0,M,,M,,*5A
$GPRMC,091837.000,A,0003.4264,N,03655.3885,E,,,120120,,A*42
$GPGGA,091853.000,0003.4252,N,03655.3899,E,1,12,,1788.0,M,,M,,*53
$GPRMC,091853.000,A,0003.4252,N,03655.3899,E,,,120120,,A*48
$GPGGA,091909.000,0003.4253,N,03655.3885,E,1,11,,1788.0,M,,M,,*52
$GPRMC,091909.000,A,0003.4253,N,03655.3885,E,,,120120,,A*4A
$GPGGA,091925.000,0003.4306,N,03655.3876,E,1,7,,1786.0,M,,M,,*68
$GPRMC,091925.000,A,0003.4306,N,03655.3876,E,,,120120,,A*49
$GPGGA,091940.000,0003.4254,N,03655.3871,E,1,12,,1788.0,M,,M,,*50
$GPRMC,091940.000,A,0003.4254,N,03655.3871,E,,,120120,,A*4B
$GPGGA,091955.000,0003.4256,N,03655.3869,E,1,12,,1788.0,M,,M,,*5F
$GPRMC,091955.000,A,0003.4256,N,03655.3869,E,,,120120,,A*44
$GPGGA,092010.000,0003.4254,N,03655.3867,E,1,12,,1788.0,M,,M,,*58
$GPRMC,092010.000,A,0003.4254,N,03655.3867,E,,,120120,,A*43
$GPGGA,092025.000,0003.4256,N,03655.3869,E,1,12,,1788.0,M,,M,,*52
$GPRMC,092025.000,A,0003.4256,N,03655.3869,E,,,120120,,A*49
$GPGGA,092040.000,0003.4258,N,03655.3871,E,1,12,,1788.0,M,,M,,*56
$GPRMC,092040.000,A,0003.4258,N,03655.3871,E,,,120120,,A*4D
$GPGGA,092049.000,0003.4260,N,03655.3873,E,1,11,,1788.0,M,,M,,*55
$GPRMC,092049.000,A,0003.4260,N,03655.3873,E,,,120120,,A*4D
$GPGGA,092104.000,0003.4260,N,03655.3896,E,1,12,,1788.0,M,,M,,*55
$GPRMC,092104.000,A,0003.4260,N,03655.3896,E,,,120120,,A*4E
$GPGGA,092109.000,0003.4252,N,03655.3883,E,1,12,,1788.0,M,,M,,*5D
$GPRMC,092109.000,A,0003.4252,N,03655.3883,E,,,120120,,A*46
$GPGGA,092125.000,0003.4233,N,03655.3894,E,1,11,,1788.0,M,,M,,*51
$GPRMC,092125.000,A,0003.4233,N,03655.3894,E,,,120120,,A*49
$GPGGA,092141.000,0003.4236,N,03655.3873,E,1,11,,1788.0,M,,M,,*5F
$GPRMC,092141.000,A,0003.4236,N,03655.3873,E,,,120120,,A*47
$GPGGA,092157.000,0003.4245,N,03655.3889,E,1,12,,1788.0,M,,M,,*5A
$GPRMC,092157.000,A,0003.4245,N,03655.3889,E,,,120120,,A*41
$GPGGA,092213.000,0003.4243,N,03655.3887,E,1,12,,1788.0,M,,M,,*51
$GPRMC,092213.000,A,0003.4243,N,03655.3887,E,,,120120,,A*4A
$GPGGA,092229.000,0003.4234,N,03655.3892,E,1,11,,1788.0,M,,M,,*5F
$GPRMC,092229.000,A,0003.4234,N,03655.3892,E,,,120120,,A*47
$GPGGA,092245.000,0003.4248,N,03655.3896,E,1,12,,1788.0,M,,M,,*59
$GPRMC,092245.000,A,0003.4248,N,03655.3896,E,,,120120,,A*42
$GPGGA,092301.000,0003.4231,N,03655.3885,E,1,11,,1788.0,M,,M,,*57
$GPRMC,092301.000,A,0003.4231,N,03655.3885,E,,,120120,,A*4F
$GPGGA,092317.000,0003.4246,N,03655.3892,E,1,12,,1788.0,M,,M,,*55
$GPRMC,092317.000,A,0003.4246,N,03655.3892,E,,,120120,,A*4E
$GPGGA,092333.000,0003.4248,N,03655.3889,E,1,11,,1788.0,M,,M,,*54
$GPRMC,092333.000,A,0003.4248,N,03655.3889,E,,,120120,,A*4C
$GPGGA,092349.000,0003.4243,N,03655.3899,E,1,12,,1788.0,M,,M,,*50
$GPRMC,092349.000,A,0003.4243,N,03655.3899,E,,,120120,,A*4B
$GPGGA,092405.000,0003.4235,N,03655.3880,E,1,11,,1788.0,M,,M,,*55
$GPRMC,092405.000,A,0003.4235,N,03655.3880,E,,,120120,,A*4D
$GPGGA,092421.000,0003.4242,N,03655.3892,E,1,12,,1788.0,M,,M,,*53
$GPRMC,092421.000,A,0003.4242,N,03655.3892,E,,,120120,,A*48
$GPGGA,092437.000,0003.4231,N,03655.3885,E,1,12,,1788.0,M,,M,,*56
$GPRMC,092437.000,A,0003.4231,N,03655.3885,E,,,120120,,A*4D
$GPGGA,092453.000,0003.4234,N,03655.3892,E,1,11,,1788.0,M,,M,,*54
$GPRMC,092453.000,A,0003.4234,N,03655.3892,E,,,120120,,A*4C
$GPGGA,092509.000,0003.4236,N,03655.3901,E,1,9,,1787.0,M,,M,,*65
$GPRMC,092509.000,A,0003.4236,N,03655.3901,E,,,120120,,A*4B
$GPGGA,092525.000,0003.4262,N,03655.3944,E,1,12,,1787.0,M,,M,,*51
$GPRMC,092525.000,A,0003.4262,N,03655.3944,E,,,120120,,A*45
$GPGGA,092540.000,0003.4269,N,03655.4068,E,1,11,,1788.0,M,,M,,*55
$GPRMC,092540.000,A,0003.4269,N,03655.4068,E,,,120120,,A*4D
$GPGGA,092557.000,0003.4591,N,03655.4020,E,1,12,,1788.0,M,,M,,*5C
$GPRMC,092557.000,A,0003.4591,N,03655.4020,E,,,120120,,A*47
$GPGGA,092613.000,0003.4917,N,03655.4134,E,1,12,,1788.0,M,,M,,*59
$GPRMC,092613.000,A,0003.4917,N,03655.4134,E,,,120120,,A*42
$GPGGA,092629.000,0003.5154,N,03655.4386,E,1,11,,1788.0,M,,M,,*56
$GPRMC,092629.000,A,0003.5154,N,03655.4386,E,,,120120,,A*4E
$GPGGA,092645.000,0003.5294,N,03655.4523,E,1,12,,1788.0,M,,M,,*59
$GPRMC,092645.000,A,0003.5294,N,03655.4523,E,,,120120,,A*42
$GPGGA,092701.000,0003.5488,N,03655.4560,E,1,10,,1789.0,M,,M,,*57
$GPRMC,092701.000,A,0003.5488,N,03655.4560,E,,,120120,,A*4F
$GPGGA,092717.000,0003.5878,N,03655.4414,E,1,10,,1789.0,M,,M,,*51
$GPRMC,092717.000,A,0003.5878,N,03655.4414,E,,,120120,,A*49
$GPGGA,092733.000,0003.5902,N,03655.4169,E,1,11,,1789.0,M,,M,,*55
$GPRMC,092733.000,A,0003.5902,N,03655.4169,E,,,120120,,A*4C
$GPGGA,092749.000,0003.5908,N,03655.3949,E,1,11,,1789.0,M,,M,,*5F
$GPRMC,092749.000,A,0003.5908,N,03655.3949,E,,,120120,,A*46
$GPGGA,092805.000,0003.5864,N,03655.3791,E,1,12,,1789.0,M,,M,,*5B
$GPRMC,092805.000,A,0003.5864,N,03655.3791,E,,,120120,,A*41
$GPGGA,092821.000,0003.5818,N,03655.3681,E,1,12,,1788.0,M,,M,,*57
$GPRMC,092821.000,A,0003.5818,N,03655.3681,E,,,120120,,A*4C
$GPGGA,092837.000,0003.5835,N,03655.3610,E,1,11,,1788.0,M,,M,,*54
$GPRMC,092837.000,A,0003.5835,N,03655.3610,E,,,120120,,A*4C
$GPGGA,092853.000,0003.5845,N,03655.3610,E,1,12,,1788.0,M,,M,,*52
$GPRMC,092853.000,A,0003.5845,N,03655.3610,E,,,120120,,A*49
$GPGGA,092909.000,0003.5909,N,03655.3647,E,1,11,,1789.0,M,,M,,*55
$GPRMC,092909.000,A,0003.5909,N,03655.3647,E,,,120120,,A*4C
$GPGGA,092925.000,0003.5964,N,03655.3649,E,1,11,,1789.0,M,,M,,*5E
$GPRMC,092925.000,A,0003.5964,N,03655.3649,E,,,120120,,A*47
$GPGGA,092941.000,0003.5967,N,03655.3651,E,1,11,,1789.0,M,,M,,*56
$GPRMC,092941.000,A,0003.5967,N,03655.3651,E,,,120120,,A*4F
$GPGGA,092957.000,0003.5976,N,03655.3647,E,1,12,,1789.0,M,,M,,*55
$GPRMC,092957.000,A,0003.5976,N,03655.3647,E,,,120120,,A*4F
$GPGGA,093013.000,0003.5982,N,03655.3642,E,1,11,,1789.0,M,,M,,*50
$GPRMC,093013.000,A,0003.5982,N,03655.3642,E,,,120120,,A*49
$GPGGA,093029.000,0003.5983,N,03655.3651,E,1,12,,1789.0,M,,M,,*59
$GPRMC,093029.000,A,0003.5983,N,03655.3651,E,,,120120,,A*43
$GPGGA,093045.000,0003.6024,N,03655.3661,E,1,11,,1789.0,M,,M,,*54
$GPRMC,093045.000,A,0003.6024,N,03655.3661,E,,,120120,,A*4D
$GPGGA,093101.000,0003.6160,N,03655.3793,E,1,12,,1789.0,M,,M,,*5B
$GPRMC,093101.000,A,0003.6160,N,03655.3793,E,,,120120,,A*41
$GPGGA,093117.000,0003.6284,N,03655.3823,E,1,11,,1789.0,M,,M,,*52
$GPRMC,093117.000,A,0003.6284,N,03655.3823,E,,,120120,,A*4B
$GPGGA,093133.000,0003.6540,N,03655.3823,E,1,12,,1789.0,M,,M,,*58
$GPRMC,093133.000,A,0003.6540,N,03655.3823,E,,,120120,,A*42
$GPGGA,093149.000,0003.6531,N,03655.3846,E,1,9,,1789.0,M,,M,,*6A
$GPRMC,093149.000,A,0003.6531,N,03655.3846,E,,,120120,,A*4A
$GPGGA,093205.000,0003.6530,N,03655.3846,E,1,10,,1789.0,M,,M,,*58
$GPRMC,093205.000,A,0003.6530,N,03655.3846,E,,,120120,,A*40
$GPGGA,093221.000,0003.6530,N,03655.3841,E,1,8,,1789.0,M,,M,,*60
$GPRMC,093221.000,A,0003.6530,N,03655.3841,E,,,120120,,A*41
$GPGGA,093237.000,0003.6534,N,03655.3851,E,1,10,,1789.0,M,,M,,*5B
$GPRMC,093237.000,A,0003.6534,N,03655.3851,E,,,120120,,A*43
$GPGGA,093253.000,0003.6525,N,03655.3839,E,1,10,,1789.0,M,,M,,*57
$GPRMC,093253.000,A,0003.6525,N,03655.3839,E,,,120120,,A*4F
$GPGGA,093309.000,0003.6521,N,03655.3839,E,1,10,,1789.0,M,,M,,*5D
$GPRMC,093309.000,A,0003.6521,N,03655.3839,E,,,120120,,A*45
$GPGGA,093325.000,0003.6599,N,03655.3844,E,1,10,,1789.0,M,,M,,*5A
$GPRMC,093325.000,A,0003.6599,N,03655.3844,E,,,120120,,A*42
$GPGGA,093340.000,0003.6791,N,03655.3764,E,1,10,,1789.0,M,,M,,*5E
$GPRMC,093340.000,A,0003.6791,N,03655.3764,E,,,120120,,A*46
$GPGGA,093356.000,0003.6980,N,03655.3741,E,1,8,,1789.0,M,,M,,*69
$GPRMC,093356.000,A,0003.6980,N,03655.3741,E,,,120120,,A*48
$GPGGA,093412.000,0003.6983,N,03655.3745,E,1,12,,1790.0,M,,M,,*5A
$GPRMC,093412.000,A,0003.6983,N,03655.3745,E,,,120120,,A*48
$GPGGA,093429.000,0003.6984,N,03655.3752,E,1,12,,1789.0,M,,M,,*5B
$GPRMC,093429.000,A,0003.6984,N,03655.3752,E,,,120120,,A*41
$GPGGA,093445.000,0003.6975,N,03655.3732,E,1,12,,1790.0,M,,M,,*51
$GPRMC,093445.000,A,0003.6975,N,03655.3732,E,,,120120,,A*43
$GPGGA,093501.000,0003.7047,N,03655.3732,E,1,12,,1790.0,M,,M,,*59
$GPRMC,093501.000,A,0003.7047,N,03655.3732,E,,,120120,,A*4B
$GPGGA,093516.000,0003.7344,N,03655.3741,E,1,10,,1790.0,M,,M,,*59
$GPRMC,093516.000,A,0003.7344,N,03655.3741,E,,,120120,,A*49
$GPGGA,093533.000,0003.7594,N,03655.3885,E,1,12,,1790.0,M,,M,,*50
$GPRMC,093533.000,A,0003.7594,N,03655.3885,E,,,120120,,A*42
$GPGGA,093549.000,0003.7680,N,03655.4031,E,1,11,,1790.0,M,,M,,*58
$GPRMC,093549.000,A,0003.7680,N,03655.4031,E,,,120120,,A*49
$GPGGA,093605.000,0003.7679,N,03655.4114,E,1,12,,1790.0,M,,M,,*50
$GPRMC,093605.000,A,0003.7679,N,03655.4114,E,,,120120,,A*42
$GPGGA,093621.000,0003.7681,N,03655.4116,E,1,9,,1790.0,M,,M,,*69
$GPRMC,093621.000,A,0003.7681,N,03655.4116,E,,,120120,,A*41
$GPGGA,093636.000,0003.7670,N,03655.4116,E,1,10,,1790.0,M,,M,,*59
$GPRMC,093636.000,A,0003.7670,N,03655.4116,E,,,120120,,A*49
$GPGGA,093652.000,0003.7689,N,03655.4148,E,1,12,,1790.0,M,,M,,*54
$GPRMC,093652.000,A,0003.7689,N,03655.4148,E,,,120120,,A*46
$GPGGA,093708.000,0003.7665,N,03655.4185,E,1,12,,1790.0,M,,M,,*59
$GPRMC,093708.000,A,0003.7665,N,03655.4185,E,,,120120,,A*4B
$GPGGA,093724.000,0003.7538,N,03655.4164,E,1,12,,1790.0,M,,M,,*53
$GPRMC,093724.000,A,0003.7538,N,03655.4164,E,,,120120,,A*41
$GPGGA,093740.000,0003.7516,N,03655.4187,E,1,10,,1790.0,M,,M,,*52
$GPRMC,093740.000,A,0003.7516,N,03655.4187,E,,,120120,,A*42
$GPGGA,093756.000,0003.7522,N,03655.4180,E,1,12,,1790.0,M,,M,,*57
$GPRMC,093756.000,A,0003.7522,N,03655.4180,E,,,120120,,A*45
$GPGGA,093812.000,0003.7515,N,03655.4182,E,1,11,,1790.0,M,,M,,*5D
$GPRMC,093812.000,A,0003.7515,N,03655.4182,E,,,120120,,A*4C
$GPGGA,093827.000,0003.7629,N,03655.4146,E,1,11,,1790.0,M,,M,,*5F
$GPRMC,093827.000,A,0003.7629,N,03655.4146,E,,,120120,,A*4E
$GPGGA,093842.000,0003.7538,N,03655.4185,E,1,12,,1791.0,M,,M,,*52
$GPRMC,093842.000,A,0003.7538,N,03655.4185,E,,,120120,,A*41
$GPGGA,093857.000,0003.7540,N,03655.4228,E,1,10,,1791.0,M,,M,,*5F
$GPRMC,093857.000,A,0003.7540,N,03655.4228,E,,,120120,,A*4E
$GPGGA,093914.000,0003.7522,N,03655.4185,E,1,12,,1791.0,M,,M,,*5B
$GPRMC,093914.000,A,0003.7522,N,03655.4185,E,,,120120,,A*48
$GPGGA,093930.000,0003.7497,N,03655.4205,E,1,11,,1791.0,M,,M,,*5A
$GPRMC,093930.000,A,0003.7497,N,03655.4205,E,,,120120,,A*4A
$GPGGA,093946.000,0003.7496,N,03655.4214,E,1,11,,1791.0,M,,M,,*5A
$GPRMC,093946.000,A,0003.7496,N,03655.4214,E,,,120120,,A*4A
$GPGGA,094002.000,0003.7483,N,03655.4221,E,1,11,,1791.0,M,,M,,*56
$GPRMC,094002.000,A,0003.7483,N,03655.4221,E,,,120120,,A*46
$GPGGA,094018.000,0003.7491,N,03655.4210,E,1,12,,1791.0,M,,M,,*5F
$GPRMC,094018.000,A,0003.7491,N,03655.4210,E,,,120120,,A*4C
$GPGGA,094034.000,0003.7501,N,03655.4201,E,1,12,,1791.0,M,,M,,*59
$GPRMC,094034.000,A,0003.7501,N,03655.4201,E,,,120120,,A*4A
$GPGGA,094049.000,0003.7494,N,03655.4269,E,1,11,,1791.0,M,,M,,*53
$GPRMC,094049.000,A,0003.7494,N,03655.4269,E,,,120120,,A*43
$GPGGA,094106.000,0003.7519,N,03655.4263,E,1,11,,1791.0,M,,M,,*57
$GPRMC,094106.000,A,0003.7519,N,03655.4263,E,,,120120,,A*47
$GPGGA,094122.000,0003.7519,N,03655.4279,E,1,9,,1791.0,M,,M,,*63
$GPRMC,094122.000,A,0003.7519,N,03655.4279,E,,,120120,,A*4A
$GPGGA,094137.000,0003.7518,N,03655.4276,E,1,8,,1792.0,M,,M,,*6B
$GPRMC,094137.000,A,0003.7518,N,03655.4276,E,,,120120,,A*40
$GPGGA,094154.000,0003.7516,N,03655.4276,E,1,12,,1792.0,M,,M,,*5B
$GPRMC,094154.000,A,0003.7516,N,03655.4276,E,,,120120,,A*4B
$GPGGA,094210.000,0003.7505,N,03655.4279,E,1,10,,1792.0,M,,M,,*57
$GPRMC,094210.000,A,0003.7505,N,03655.4279,E,,,120120,,A*45
$GPGGA,094226.000,0003.7512,N,03655.4290,E,1,12,,1792.0,M,,M,,*51
$GPRMC,094226.000,A,0003.7512,N,03655.4290,E,,,120120,,A*41
$GPGGA,094242.000,0003.7506,N,03655.4272,E,1,12,,1792.0,M,,M,,*5A
$GPRMC,094242.000,A,0003.7506,N,03655.4272,E,,,120120,,A*4A
$GPGGA,094258.000,0003.7488,N,03655.4260,E,1,12,,1792.0,M,,M,,*55
$GPRMC,094258.000,A,0003.7488,N,03655.4260,E,,,120120,,A*45
$GPGGA,094314.000,0003.7514,N,03655.4244,E,1,9,,1792.0,M,,M,,*64
$GPRMC,094314.000,A,0003.7514,N,03655.4244,E,,,120120,,A*4E
$GPGGA,094330.000,0003.7492,N,03655.4263,E,1,9,,1792.0,M,,M,,*68
$GPRMC,094330.000,A,0003.7492,N,03655.4263,E,,,120120,,A*42
$GPGGA,094345.000,0003.7572,N,03655.4281,E,1,10,,1792.0,M,,M,,*51
$GPRMC,094345.000,A,0003.7572,N,03655.4281,E,,,120120,,A*43
$GPGGA,094402.000,0003.7693,N,03655.4382,E,1,12,,1792.0,M,,M,,*59
$GPRMC,094402.000,A,0003.7693,N,03655.4382,E,,,120120,,A*49
$GPGGA,094418.000,0003.7674,N,03655.4375,E,1,11,,1792.0,M,,M,,*50
$GPRMC,094418.000,A,0003.7674,N,03655.4375,E,,,120120,,A*43
$GPGGA,094434.000,0003.7686,N,03655.4359,E,1,12,,1792.0,M,,M,,*5E
$GPRMC,094434.000,A,0003.7686,N,03655.4359,E,,,120120,,A*4E
$GPGGA,094450.000,0003.7654,N,03655.4354,E,1,10,,1792.0,M,,M,,*5C
$GPRMC,094450.000,A,0003.7654,N,03655.4354,E,,,120120,,A*4E
$GPGGA,094506.000,0003.7652,N,03655.4384,E,1,11,,1792.0,M,,M,,*54
$GPRMC,094506.000,A,0003.7652,N,03655.4384,E,,,120120,,A*47
$GPGGA,094522.000,0003.7547,N,03655.4464,E,1,12,,1792.0,M,,M,,*5F
$GPRMC,094522.000,A,0003.7547,N,03655.4464,E,,,120120,,A*4F
$GPGGA,094538.000,0003.7552,N,03655.4546,E,1,12,,1792.0,M,,M,,*51
$GPRMC,094538.000,A,0003.7552,N,03655.4546,E,,,120120,,A*41
$GPGGA,094554.000,0003.7572,N,03655.4629,E,1,11,,1792.0,M,,M,,*50
$GPRMC,094554.000,A,0003.7572,N,03655.4629,E,,,120120,,A*43
$GPGGA,094610.000,0003.7647,N,03655.4734,E,1,10,,1792.0,M,,M,,*5A
$GPRMC,094610.000,A,0003.7647,N,03655.4734,E,,,120120,,A*48
$GPGGA,094626.000,0003.7643,N,03655.4736,E,1,2,,1792.0,M,,M,,*6A
$GPRMC,094626.000,A,0003.7643,N,03655.4736,E,,,120120,,A*4B
$GPGGA,094632.000,0003.7646,N,03655.4736,E,1,9,,1792.0,M,,M,,*61
$GPRMC,094632.000,A,0003.7646,N,03655.4736,E,,,120120,,A*4B
$GPGGA,094648.000,0003.7650,N,03655.4750,E,1,12,,1792.0,M,,M,,*51
$GPRMC,094648.000,A,0003.7650,N,03655.4750,E,,,120120,,A*41
$GPGGA,094704.000,0003.7649,N,03655.4757,E,1,10,,1792.0,M,,M,,*55
$GPRMC,094704.000,A,0003.7649,N,03655.4757,E,,,120120,,A*47
$GPGGA,094720.000,0003.7648,N,03655.4762,E,1,11,,1792.0,M,,M,,*55
$GPRMC,094720.000,A,0003.7648,N,03655.4762,E,,,120120,,A*46
$GPGGA,094736.000,0003.7645,N,03655.4757,E,1,10,,1792.0,M,,M,,*58
$GPRMC,094736.000,A,0003.7645,N,03655.4757,E,,,120120,,A*4A
$GPGGA,094752.000,0003.7646,N,03655.4755,E,1,10,,1792.0,M,,M,,*5B
$GPRMC,094752.000,A,0003.7646,N,03655.4755,E,,,120120,,A*49
$GPGGA,094807.000,0003.7664,N,03655.4782,E,1,10,,1792.0,M,,M,,*5E
$GPRMC,094807.000,A,0003.7664,N,03655.4782,E,,,120120,,A*4C
$GPGGA,094824.000,0003.7654,N,03655.4764,E,1,9,,1792.0,M,,M,,*6C
$GPRMC,094824.000,A,0003.7654,N,03655.4764,E,,,120120,,A*46
$GPGGA,094840.000,0003.7661,N,03655.4773,E,1,11,,1792.0,M,,M,,*57
$GPRMC,094840.000,A,0003.7661,N,03655.4773,E,,,120120,,A*44
$GPGGA,094856.000,0003.7656,N,03655.4766,E,1,10,,1792.0,M,,M,,*51
$GPRMC,094856.000,A,0003.7656,N,03655.4766,E,,,120120,,A*43
$GPGGA,094912.000,0003.7644,N,03655.4762,E,1,8,,1792.0,M,,M,,*6E
$GPRMC,094912.000,A,0003.7644,N,03655.4762,E,,,120120,,A*45
$GPGGA,094928.000,0003.7635,N,03655.4750,E,1,10,,1792.0,M,,M,,*59
$GPRMC,094928.000,A,0003.7635,N,03655.4750,E,,,120120,,A*4B
$GPGGA,094944.000,0003.7638,N,03655.4750,E,1,9,,1792.0,M,,M,,*66
$GPRMC,094944.000,A,0003.7638,N,03655.4750,E,,,120120,,A*4C
$GPGGA,095000.000,0003.7644,N,03655.4750,E,1,11,,1792.0,M,,M,,*5C
$GPRMC,095000.000,A,0003.7644,N,03655.4750,E,,,120120,,A*4F
$GPGGA,095016.000,0003.7659,N,03655.4773,E,1,9,,1792.0,M,,M,,*6F
$GPRMC,095016.000,A,0003.7659,N,03655.4773,E,,,120120,,A*45
$GPGGA,095032.000,0003.7653,N,03655.4739,E,1,8,,1792.0,M,,M,,*6C
$GPRMC,095032.000,A,0003.7653,N,03655.4739,E,,,120120,,A*47
$GPGGA,095048.000,0003.7652,N,03655.4739,E,1,10,,1792.0,M,,M,,*59
$GPRMC,095048.000,A,0003.7652,N,03655.4739,E,,,120120,,A*4B
$GPGGA,095104.000,0003.7647,N,03655.4752,E,1,10,,1792.0,M,,M,,*59
$GPRMC,095104.000,A,0003.7647,N,03655.4752,E,,,120120,,A*4B
$GPGGA,095120.000,0003.7652,N,03655.4752,E,1,9,,1792.0,M,,M,,*63
$GPRMC,095120.000,A,0003.7652,N,03655.4752,E,,,120120,,A*49
$GPGGA,095136.000,0003.7658,N,03655.4759,E,1,9,,1792.0,M,,M,,*65
$GPRMC,095136.000,A,0003.7658,N,03655.4759,E,,,120120,,A*4F
$GPGGA,095152.000,0003.7646,N,03655.4734,E,1,11,,1792.0,M,,M,,*5A
$GPRMC,095152.000,A,0003.7646,N,03655.4734,E,,,120120,,A*49
$GPGGA,095208.000,0003.7645,N,03655.4755,E,1,7,,1792.0,M,,M,,*65
$GPRMC,095208.000,A,0003.7645,N,03655.4755,E,,,120120,,A*41
$GPGGA,095224.000,0003.7652,N,03655.4759,E,1,11,,1792.0,M,,M,,*56
$GPRMC,095224.000,A,0003.7652,N,03655.4759,E,,,120120,,A*45
$GPGGA,095240.000,0003.7688,N,03655.4787,E,1,12,,1792.0,M,,M,,*53
$GPRMC,095240.000,A,0003.7688,N,03655.4787,E,,,120120,,A*43
$GPGGA,095256.000,0003.7788,N,03655.4823,E,1,11,,1792.0,M,,M,,*57
$GPRMC,095256.000,A,0003.7788,N,03655.4823,E,,,120120,,A*44
$GPGGA,095312.000,0003.7927,N,03655.4894,E,1,10,,1792.0,M,,M,,*50
$GPRMC,095312.000,A,0003.7927,N,03655.4894,E,,,120120,,A*42
$GPGGA,095328.000,0003.8058,N,03655.4878,E,1,12,,1792.0,M,,M,,*57
$GPRMC,095328.000,A,0003.8058,N,03655.4878,E,,,120120,,A*47
$GPGGA,095344.000,0003.8048,N,03655.4867,E,1,10,,1792.0,M,,M,,*50
$GPRMC,095344.000,A,0003.8048,N,03655.4867,E,,,120120,,A*42
$GPGGA,095400.000,0003.8058,N,03655.4848,E,1,10,,1792.0,M,,M,,*5B
$GPRMC,095400.000,A,0003.8058,N,03655.4848,E,,,120120,,A*49
$GPGGA,095416.000,0003.8061,N,03655.4897,E,1,12,,1792.0,M,,M,,*56
$GPRMC,095416.000,A,0003.8061,N,03655.4897,E,,,120120,,A*46
$GPGGA,095432.000,0003.8060,N,03655.4848,E,1,11,,1792.0,M,,M,,*50
$GPRMC,095432.000,A,0003.8060,N,03655.4848,E,,,120120,,A*43
$GPGGA,095448.000,0003.8066,N,03655.4835,E,1,10,,1792.0,M,,M,,*50
$GPRMC,095448.000,A,0003.8066,N,03655.4835,E,,,120120,,A*42
$GPGGA,095504.000,0003.8077,N,03655.4851,E,1,10,,1792.0,M,,M,,*5B
$GPRMC,095504.000,A,0003.8077,N,03655.4851,E,,,120120,,A*49
$GPGGA,095520.000,0003.8056,N,03655.4876,E,1,11,,1792.0,M,,M,,*5A
$GPRMC,095520.000,A,0003.8056,N,03655.4876,E,,,120120,,A*49
$GPGGA,095536.000,0003.8051,N,03655.4871,E,1,10,,1792.0,M,,M,,*5C
$GPRMC,095536.000,A,0003.8051,N,03655.4871,E,,,120120,,A*4E
$GPGGA,095552.000,0003.8086,N,03655.4862,E,1,11,,1792.0,M,,M,,*57
$GPRMC,095552.000,A,0003.8086,N,03655.4862,E,,,120120,,A*44
$GPGGA,095608.000,0003.8072,N,03655.4874,E,1,10,,1792.0,M,,M,,*56
$GPRMC,095608.000,A,0003.8072,N,03655.4874,E,,,120120,,A*44
$GPGGA,095623.000,0003.8072,N,03655.4839,E,1,11,,1793.0,M,,M,,*56
$GPRMC,095623.000,A,0003.8072,N,03655.4839,E,,,120120,,A*44
$GPGGA,095640.000,0003.8080,N,03655.4842,E,1,10,,1793.0,M,,M,,*53
$GPRMC,095640.000,A,0003.8080,N,03655.4842,E,,,120120,,A*40
$GPGGA,095656.000,0003.8080,N,03655.4837,E,1,11,,1792.0,M,,M,,*56
$GPRMC,095656.000,A,0003.8080,N,03655.4837,E,,,120120,,A*45
$GPGGA,095712.000,0003.8079,N,03655.4842,E,1,11,,1792.0,M,,M,,*53
$GPRMC,095712.000,A,0003.8079,N,03655.4842,E,,,120120,,A*40
