@NikonS9900/ver1.0/wgs84
$GPGGA,041854.000,0019.3784,N,03654.2285,E,1,5,,1717.0,M,,M,,*6C
$GPRMC,041854.000,A,0019.3784,N,03654.2285,E,,,250120,,A*43
$GPGGA,041909.000,0019.3791,N,03654.2249,E,1,5,,1711.0,M,,M,,*67
$GPRMC,041909.000,A,0019.3791,N,03654.2249,E,,,250120,,A*4E
$GPGGA,042001.000,0019.3984,N,03654.2294,E,1,9,,1713.0,M,,M,,*61
$GPRMC,042001.000,A,0019.3984,N,03654.2294,E,,,250120,,A*46
$GPGGA,042017.000,0019.4061,N,03654.2356,E,1,9,,1712.0,M,,M,,*6D
$GPRMC,042017.000,A,0019.4061,N,03654.2356,E,,,250120,,A*4B
$GPGGA,042032.000,0019.4145,N,03654.2411,E,1,9,,1712.0,M,,M,,*69
$GPRMC,042032.000,A,0019.4145,N,03654.2411,E,,,250120,,A*4F
$GPGGA,042049.000,0019.4164,N,03654.2496,E,1,8,,1712.0,M,,M,,*68
$GPRMC,042049.000,A,0019.4164,N,03654.2496,E,,,250120,,A*4F
$GPGGA,042105.000,0019.4161,N,03654.2477,E,1,9,,1712.0,M,,M,,*6A
$GPRMC,042105.000,A,0019.4161,N,03654.2477,E,,,250120,,A*4C
$GPGGA,042121.000,0019.4114,N,03654.2468,E,1,9,,1712.0,M,,M,,*60
$GPRMC,042121.000,A,0019.4114,N,03654.2468,E,,,250120,,A*46
$GPGGA,042137.000,0019.4146,N,03654.2464,E,1,10,,1712.0,M,,M,,*54
$GPRMC,042137.000,A,0019.4146,N,03654.2464,E,,,250120,,A*4A
$GPGGA,042153.000,0019.4059,N,03654.2445,E,1,10,,1712.0,M,,M,,*5A
$GPRMC,042153.000,A,0019.4059,N,03654.2445,E,,,250120,,A*44
$GPGGA,042208.000,0019.4067,N,03654.2420,E,1,7,,1712.0,M,,M,,*6F
$GPRMC,042208.000,A,0019.4067,N,03654.2420,E,,,250120,,A*47
$GPGGA,042239.000,0019.4000,N,03654.2274,E,1,4,,1712.0,M,,M,,*68
$GPRMC,042239.000,A,0019.4000,N,03654.2274,E,,,250120,,A*43
$GPGGA,042253.000,0019.4033,N,03654.2310,E,1,5,,1712.0,M,,M,,*66
$GPRMC,042253.000,A,0019.4033,N,03654.2310,E,,,250120,,A*4C
$GPGGA,042319.000,0019.4080,N,03654.2315,E,1,4,,1712.0,M,,M,,*65
$GPRMC,042319.000,A,0019.4080,N,03654.2315,E,,,250120,,A*4E
$GPGGA,042336.000,0019.4060,N,03654.2237,E,1,5,,1712.0,M,,M,,*66
$GPRMC,042336.000,A,0019.4060,N,03654.2237,E,,,250120,,A*4C
$GPGGA,042355.000,0019.3946,N,03654.2336,E,1,6,,1712.0,M,,M,,*6A
$GPRMC,042355.000,A,0019.3946,N,03654.2336,E,,,250120,,A*43
$GPGGA,042416.000,0019.3935,N,03654.2322,E,1,4,,1712.0,M,,M,,*69
$GPRMC,042416.000,A,0019.3935,N,03654.2322,E,,,250120,,A*42
$GPGGA,042436.000,0019.3865,N,03654.2182,E,1,3,,1712.0,M,,M,,*60
$GPRMC,042436.000,A,0019.3865,N,03654.2182,E,,,250120,,A*4C
$GPGGA,042457.000,0019.3845,N,03654.2228,E,1,4,,1712.0,M,,M,,*61
$GPRMC,042457.000,A,0019.3845,N,03654.2228,E,,,250120,,A*4A
$GPGGA,042515.000,0019.3908,N,03654.2162,E,1,3,,1712.0,M,,M,,*64
$GPRMC,042515.000,A,0019.3908,N,03654.2162,E,,,250120,,A*48
$GPGGA,042534.000,0019.3797,N,03654.2171,E,1,4,,1712.0,M,,M,,*6A
$GPRMC,042534.000,A,0019.3797,N,03654.2171,E,,,250120,,A*41
$GPGGA,042602.000,0019.3442,N,03654.2088,E,1,6,,1712.0,M,,M,,*62
$GPRMC,042602.000,A,0019.3442,N,03654.2088,E,,,250120,,A*4B
$GPGGA,042617.000,0019.3710,N,03654.2191,E,1,6,,1712.0,M,,M,,*6B
$GPRMC,042617.000,A,0019.3710,N,03654.2191,E,,,250120,,A*42
$GPGGA,042655.000,0019.3629,N,03654.2075,E,1,4,,1712.0,M,,M,,*6F
$GPRMC,042655.000,A,0019.3629,N,03654.2075,E,,,250120,,A*44
$GPGGA,042724.000,0019.3873,N,03654.2251,E,1,4,,1712.0,M,,M,,*6D
$GPRMC,042724.000,A,0019.3873,N,03654.2251,E,,,250120,,A*46
$GPGGA,042739.000,0019.3942,N,03654.2278,E,1,4,,1712.0,M,,M,,*69
$GPRMC,042739.000,A,0019.3942,N,03654.2278,E,,,250120,,A*42
$GPGGA,042800.000,0019.4141,N,03654.2212,E,1,5,,1712.0,M,,M,,*6D
$GPRMC,042800.000,A,0019.4141,N,03654.2212,E,,,250120,,A*47
$GPGGA,042824.000,0019.4143,N,03654.2173,E,1,4,,1712.0,M,,M,,*6C
$GPRMC,042824.000,A,0019.4143,N,03654.2173,E,,,250120,,A*47
$GPGGA,042846.000,0019.4014,N,03654.2324,E,1,4,,1712.0,M,,M,,*6B
$GPRMC,042846.000,A,0019.4014,N,03654.2324,E,,,250120,,A*40
$GPGGA,042904.000,0019.4030,N,03654.2347,E,1,4,,1712.0,M,,M,,*6F
$GPRMC,042904.000,A,0019.4030,N,03654.2347,E,,,250120,,A*44
$GPGGA,042928.000,0019.4025,N,03654.2370,E,1,4,,1712.0,M,,M,,*61
$GPRMC,042928.000,A,0019.4025,N,03654.2370,E,,,250120,,A*4A
$GPGGA,042943.000,0019.4038,N,03654.2372,E,1,3,,1712.0,M,,M,,*65
$GPRMC,042943.000,A,0019.4038,N,03654.2372,E,,,250120,,A*49
$GPGGA,043005.000,0019.4062,N,03654.2358,E,1,4,,1712.0,M,,M,,*6F
$GPRMC,043005.000,A,0019.4062,N,03654.2358,E,,,250120,,A*44
$GPGGA,043020.000,0019.4039,N,03654.2349,E,1,4,,1712.0,M,,M,,*66
$GPRMC,043020.000,A,0019.4039,N,03654.2349,E,,,250120,,A*4D
$GPGGA,043036.000,0019.4078,N,03654.2386,E,1,5,,1712.0,M,,M,,*66
$GPRMC,043036.000,A,0019.4078,N,03654.2386,E,,,250120,,A*4C
$GPGGA,043052.000,0019.4068,N,03654.2372,E,1,5,,1712.0,M,,M,,*6E
$GPRMC,043052.000,A,0019.4068,N,03654.2372,E,,,250120,,A*44
$GPGGA,043108.000,0019.4071,N,03654.2379,E,1,4,,1712.0,M,,M,,*62
$GPRMC,043108.000,A,0019.4071,N,03654.2379,E,,,250120,,A*49
$GPGGA,043123.000,0019.4064,N,03654.2381,E,1,4,,1712.0,M,,M,,*68
$GPRMC,043123.000,A,0019.4064,N,03654.2381,E,,,250120,,A*43
$GPGGA,043529.000,0019.4095,N,03654.2342,E,1,9,,1712.0,M,,M,,*6A
$GPRMC,043529.000,A,0019.4095,N,03654.2342,E,,,250120,,A*4C
$GPGGA,043544.000,0019.4117,N,03654.2374,E,1,9,,1712.0,M,,M,,*6F
$GPRMC,043544.000,A,0019.4117,N,03654.2374,E,,,250120,,A*49
$GPGGA,043600.000,0019.4165,N,03654.2381,E,1,8,,1712.0,M,,M,,*62
$GPRMC,043600.000,A,0019.4165,N,03654.2381,E,,,250120,,A*45
$GPGGA,043616.000,0019.4191,N,03654.2386,E,1,8,,1711.0,M,,M,,*6A
$GPRMC,043616.000,A,0019.4191,N,03654.2386,E,,,250120,,A*4E
$GPGGA,043632.000,0019.4169,N,03654.2416,E,1,8,,1711.0,M,,M,,*65
$GPRMC,043632.000,A,0019.4169,N,03654.2416,E,,,250120,,A*41
$GPGGA,043648.000,0019.4178,N,03654.2409,E,1,7,,1711.0,M,,M,,*69
$GPRMC,043648.000,A,0019.4178,N,03654.2409,E,,,250120,,A*42
$GPGGA,043704.000,0019.4185,N,03654.2402,E,1,7,,1711.0,M,,M,,*69
$GPRMC,043704.000,A,0019.4185,N,03654.2402,E,,,250120,,A*42
$GPGGA,043720.000,0019.4187,N,03654.2400,E,1,7,,1710.0,M,,M,,*6E
$GPRMC,043720.000,A,0019.4187,N,03654.2400,E,,,250120,,A*44
$GPGGA,043736.000,0019.4215,N,03654.2395,E,1,8,,1710.0,M,,M,,*65
$GPRMC,043736.000,A,0019.4215,N,03654.2395,E,,,250120,,A*40
$GPGGA,043752.000,0019.4230,N,03654.2404,E,1,8,,1710.0,M,,M,,*6F
$GPRMC,043752.000,A,0019.4230,N,03654.2404,E,,,250120,,A*4A
$GPGGA,043808.000,0019.4233,N,03654.2406,E,1,7,,1710.0,M,,M,,*61
$GPRMC,043808.000,A,0019.4233,N,03654.2406,E,,,250120,,A*4B
$GPGGA,043824.000,0019.4226,N,03654.2404,E,1,7,,1710.0,M,,M,,*69
$GPRMC,043824.000,A,0019.4226,N,03654.2404,E,,,250120,,A*43
$GPGGA,043849.000,0019.4263,N,03654.2402,E,1,6,,1709.0,M,,M,,*6C
$GPRMC,043849.000,A,0019.4263,N,03654.2402,E,,,250120,,A*4F
$GPGGA,043904.000,0019.4252,N,03654.2416,E,1,6,,1709.0,M,,M,,*63
$GPRMC,043904.000,A,0019.4252,N,03654.2416,E,,,250120,,A*40
$GPGGA,043920.000,0019.4212,N,03654.2402,E,1,9,,1708.0,M,,M,,*6A
$GPRMC,043920.000,A,0019.4212,N,03654.2402,E,,,250120,,A*47
$GPGGA,043937.000,0019.4209,N,03654.2409,E,1,8,,1709.0,M,,M,,*6D
$GPRMC,043937.000,A,0019.4209,N,03654.2409,E,,,250120,,A*40
$GPGGA,043953.000,0019.4191,N,03654.2402,E,1,7,,1708.0,M,,M,,*68
$GPRMC,043953.000,A,0019.4191,N,03654.2402,E,,,250120,,A*4B
$GPGGA,044009.000,0019.4198,N,03654.2413,E,1,8,,1708.0,M,,M,,*6F
$GPRMC,044009.000,A,0019.4198,N,03654.2413,E,,,250120,,A*43
$GPGGA,044025.000,0019.4211,N,03654.2411,E,1,9,,1708.0,M,,M,,*60
$GPRMC,044025.000,A,0019.4211,N,03654.2411,E,,,250120,,A*4D
$GPGGA,044041.000,0019.4209,N,03654.2418,E,1,8,,1708.0,M,,M,,*63
$GPRMC,044041.000,A,0019.4209,N,03654.2418,E,,,250120,,A*4F
$GPGGA,044057.000,0019.4203,N,03654.2404,E,1,9,,1708.0,M,,M,,*62
$GPRMC,044057.000,A,0019.4203,N,03654.2404,E,,,250120,,A*4F
$GPGGA,044113.000,0019.4206,N,03654.2411,E,1,9,,1708.0,M,,M,,*62
$GPRMC,044113.000,A,0019.4206,N,03654.2411,E,,,250120,,A*4F
$GPGGA,044128.000,0019.4200,N,03654.2416,E,1,7,,1708.0,M,,M,,*65
$GPRMC,044128.000,A,0019.4200,N,03654.2416,E,,,250120,,A*46
$GPGGA,044144.000,0019.4177,N,03654.2418,E,1,9,,1708.0,M,,M,,*6C
$GPRMC,044144.000,A,0019.4177,N,03654.2418,E,,,250120,,A*41
$GPGGA,044200.000,0019.4162,N,03654.2439,E,1,9,,1708.0,M,,M,,*68
$GPRMC,044200.000,A,0019.4162,N,03654.2439,E,,,250120,,A*45
$GPGGA,044216.000,0019.4181,N,03654.2448,E,1,8,,1707.0,M,,M,,*6A
$GPRMC,044216.000,A,0019.4181,N,03654.2448,E,,,250120,,A*49
$GPGGA,044304.000,0019.4612,N,03654.3929,E,1,9,,1706.0,M,,M,,*6E
$GPRMC,044304.000,A,0019.4612,N,03654.3929,E,,,250120,,A*4D
$GPGGA,044319.000,0019.4555,N,03654.4205,E,1,10,,1706.0,M,,M,,*58
$GPRMC,044319.000,A,0019.4555,N,03654.4205,E,,,250120,,A*43
$GPGGA,044335.000,0019.4192,N,03654.3963,E,1,9,,1706.0,M,,M,,*6D
$GPRMC,044335.000,A,0019.4192,N,03654.3963,E,,,250120,,A*4E
$GPGGA,044351.000,0019.3475,N,03654.4338,E,1,9,,1705.0,M,,M,,*64
$GPRMC,044351.000,A,0019.3475,N,03654.4338,E,,,250120,,A*44
$GPGGA,044419.000,0019.2028,N,03654.4476,E,1,9,,1704.0,M,,M,,*6E
$GPRMC,044419.000,A,0019.2028,N,03654.4476,E,,,250120,,A*4F
$GPGGA,044435.000,0019.1393,N,03654.4631,E,1,9,,1704.0,M,,M,,*61
$GPRMC,044435.000,A,0019.1393,N,03654.4631,E,,,250120,,A*40
$GPGGA,044451.000,0019.0737,N,03654.4659,E,1,10,,1704.0,M,,M,,*5E
$GPRMC,044451.000,A,0019.0737,N,03654.4659,E,,,250120,,A*47
$GPGGA,044506.000,0018.9735,N,03654.4535,E,1,10,,1704.0,M,,M,,*5E
$GPRMC,044506.000,A,0018.9735,N,03654.4535,E,,,250120,,A*47
$GPGGA,044523.000,0018.8599,N,03654.4558,E,1,10,,1703.0,M,,M,,*50
$GPRMC,044523.000,A,0018.8599,N,03654.4558,E,,,250120,,A*4E
$GPGGA,044539.000,0018.7523,N,03654.4544,E,1,10,,1701.0,M,,M,,*5A
$GPRMC,044539.000,A,0018.7523,N,03654.4544,E,,,250120,,A*46
$GPGGA,044555.000,0018.6497,N,03654.4487,E,1,10,,1700.0,M,,M,,*50
$GPRMC,044555.000,A,0018.6497,N,03654.4487,E,,,250120,,A*4D
$GPGGA,044611.000,0018.5722,N,03654.4581,E,1,10,,1700.0,M,,M,,*5A
$GPRMC,044611.000,A,0018.5722,N,03654.4581,E,,,250120,,A*47
$GPGGA,044627.000,0018.5404,N,03654.4482,E,1,10,,1701.0,M,,M,,*5B
$GPRMC,044627.000,A,0018.5404,N,03654.4482,E,,,250120,,A*47
$GPGGA,044643.000,0018.5152,N,03654.4560,E,1,9,,1701.0,M,,M,,*6A
$GPRMC,044643.000,A,0018.5152,N,03654.4560,E,,,250120,,A*4E
$GPGGA,044659.000,0018.3366,N,03654.4297,E,1,10,,1700.0,M,,M,,*54
$GPRMC,044659.000,A,0018.3366,N,03654.4297,E,,,250120,,A*49
$GPGGA,044715.000,0018.2943,N,03654.4151,E,1,10,,1702.0,M,,M,,*5A
$GPRMC,044715.000,A,0018.2943,N,03654.4151,E,,,250120,,A*45
$GPGGA,044731.000,0018.2561,N,03654.3965,E,1,10,,1701.0,M,,M,,*5B
$GPRMC,044731.000,A,0018.2561,N,03654.3965,E,,,250120,,A*47
$GPGGA,044747.000,0018.2349,N,03654.3887,E,1,10,,1702.0,M,,M,,*58
$GPRMC,044747.000,A,0018.2349,N,03654.3887,E,,,250120,,A*47
$GPGGA,044802.000,0018.1394,N,03654.3894,E,1,10,,1701.0,M,,M,,*54
$GPRMC,044802.000,A,0018.1394,N,03654.3894,E,,,250120,,A*48
$GPGGA,044819.000,0018.1052,N,03654.3981,E,1,10,,1700.0,M,,M,,*53
$GPRMC,044819.000,A,0018.1052,N,03654.3981,E,,,250120,,A*4E
$GPGGA,044839.000,0018.0376,N,03654.3864,E,1,9,,1699.0,M,,M,,*66
$GPRMC,044839.000,A,0018.0376,N,03654.3864,E,,,250120,,A*42
$GPGGA,044854.000,0017.9955,N,03654.3764,E,1,10,,1699.0,M,,M,,*57
$GPRMC,044854.000,A,0017.9955,N,03654.3764,E,,,250120,,A*4B
$GPGGA,044910.000,0017.9787,N,03654.3576,E,1,8,,1698.0,M,,M,,*6E
$GPRMC,044910.000,A,0017.9787,N,03654.3576,E,,,250120,,A*4A
$GPGGA,044925.000,0017.9192,N,03654.3107,E,1,10,,1698.0,M,,M,,*51
$GPRMC,044925.000,A,0017.9192,N,03654.3107,E,,,250120,,A*4C
$GPGGA,044942.000,0017.8867,N,03654.2768,E,1,10,,1697.0,M,,M,,*53
$GPRMC,044942.000,A,0017.8867,N,03654.2768,E,,,250120,,A*41
$GPGGA,044958.000,0017.8631,N,03654.2260,E,1,10,,1698.0,M,,M,,*57
$GPRMC,044958.000,A,0017.8631,N,03654.2260,E,,,250120,,A*4A
$GPGGA,045014.000,0017.8500,N,03654.2134,E,1,9,,1698.0,M,,M,,*6C
$GPRMC,045014.000,A,0017.8500,N,03654.2134,E,,,250120,,A*49
$GPGGA,045030.000,0017.8184,N,03654.1722,E,1,10,,1698.0,M,,M,,*58
$GPRMC,045030.000,A,0017.8184,N,03654.1722,E,,,250120,,A*45
$GPGGA,045046.000,0017.7734,N,03654.1026,E,1,10,,1698.0,M,,M,,*58
$GPRMC,045046.000,A,0017.7734,N,03654.1026,E,,,250120,,A*45
$GPGGA,045102.000,0017.7510,N,03654.0898,E,1,9,,1697.0,M,,M,,*66
$GPRMC,045102.000,A,0017.7510,N,03654.0898,E,,,250120,,A*4C
$GPGGA,045118.000,0017.7461,N,03654.0880,E,1,10,,1697.0,M,,M,,*5B
$GPRMC,045118.000,A,0017.7461,N,03654.0880,E,,,250120,,A*49
$GPGGA,045134.000,0017.7375,N,03654.0839,E,1,10,,1697.0,M,,M,,*55
$GPRMC,045134.000,A,0017.7375,N,03654.0839,E,,,250120,,A*47
$GPGGA,045150.000,0017.6903,N,03654.0646,E,1,10,,1697.0,M,,M,,*5B
$GPRMC,045150.000,A,0017.6903,N,03654.0646,E,,,250120,,A*49
$GPGGA,045206.000,0017.6632,N,03654.0495,E,1,10,,1698.0,M,,M,,*55
$GPRMC,045206.000,A,0017.6632,N,03654.0495,E,,,250120,,A*48
$GPGGA,045222.000,0017.6798,N,03654.0154,E,1,10,,1698.0,M,,M,,*5A
$GPRMC,045222.000,A,0017.6798,N,03654.0154,E,,,250120,,A*47
$GPGGA,045238.000,0017.6965,N,03653.9852,E,1,10,,1697.0,M,,M,,*53
$GPRMC,045238.000,A,0017.6965,N,03653.9852,E,,,250120,,A*41
$GPGGA,045254.000,0017.6900,N,03653.9289,E,1,10,,1699.0,M,,M,,*58
$GPRMC,045254.000,A,0017.6900,N,03653.9289,E,,,250120,,A*44
$GPGGA,045314.000,0017.6485,N,03653.8840,E,1,8,,1700.0,M,,M,,*6B
$GPRMC,045314.000,A,0017.6485,N,03653.8840,E,,,250120,,A*4F
$GPGGA,045329.000,0017.6000,N,03653.8644,E,1,10,,1701.0,M,,M,,*5E
$GPRMC,045329.000,A,0017.6000,N,03653.8644,E,,,250120,,A*42
$GPGGA,045345.000,0017.5565,N,03653.8600,E,1,10,,1701.0,M,,M,,*51
$GPRMC,045345.000,A,0017.5565,N,03653.8600,E,,,250120,,A*4D
$GPGGA,045401.000,0017.5114,N,03653.8694,E,1,10,,1700.0,M,,M,,*58
$GPRMC,045401.000,A,0017.5114,N,03653.8694,E,,,250120,,A*45
$GPGGA,045417.000,0017.5088,N,03653.8790,E,1,8,,1700.0,M,,M,,*67
$GPRMC,045417.000,A,0017.5088,N,03653.8790,E,,,250120,,A*43
$GPGGA,045433.000,0017.5087,N,03653.8822,E,1,10,,1700.0,M,,M,,*51
$GPRMC,045433.000,A,0017.5087,N,03653.8822,E,,,250120,,A*4C
$GPGGA,045449.000,0017.5091,N,03653.8845,E,1,10,,1700.0,M,,M,,*5A
$GPRMC,045449.000,A,0017.5091,N,03653.8845,E,,,250120,,A*47
$GPGGA,045505.000,0017.5168,N,03653.8916,E,1,10,,1700.0,M,,M,,*53
$GPRMC,045505.000,A,0017.5168,N,03653.8916,E,,,250120,,A*4E
$GPGGA,045521.000,0017.5234,N,03653.8932,E,1,10,,1700.0,M,,M,,*59
$GPRMC,045521.000,A,0017.5234,N,03653.8932,E,,,250120,,A*44
$GPGGA,045537.000,0017.5266,N,03653.8992,E,1,9,,1700.0,M,,M,,*6B
$GPRMC,045537.000,A,0017.5266,N,03653.8992,E,,,250120,,A*4E
$GPGGA,045553.000,0017.5298,N,03653.9030,E,1,9,,1700.0,M,,M,,*68
$GPRMC,045553.000,A,0017.5298,N,03653.9030,E,,,250120,,A*4D
$GPGGA,045609.000,0017.5304,N,03653.9042,E,1,9,,1700.0,M,,M,,*65
$GPRMC,045609.000,A,0017.5304,N,03653.9042,E,,,250120,,A*40
$GPGGA,045625.000,0017.5307,N,03653.9044,E,1,10,,1700.0,M,,M,,*56
$GPRMC,045625.000,A,0017.5307,N,03653.9044,E,,,250120,,A*4B
$GPGGA,045641.000,0017.5316,N,03653.9067,E,1,7,,1700.0,M,,M,,*63
$GPRMC,045641.000,A,0017.5316,N,03653.9067,E,,,250120,,A*48
$GPGGA,045657.000,0017.5314,N,03653.9069,E,1,8,,1700.0,M,,M,,*67
$GPRMC,045657.000,A,0017.5314,N,03653.9069,E,,,250120,,A*43
$GPGGA,045713.000,0017.5304,N,03653.9060,E,1,10,,1700.0,M,,M,,*57
$GPRMC,045713.000,A,0017.5304,N,03653.9060,E,,,250120,,A*4A
$GPGGA,045801.000,0017.5304,N,03653.9063,E,1,10,,1699.0,M,,M,,*59
$GPRMC,045801.000,A,0017.5304,N,03653.9063,E,,,250120,,A*45
$GPGGA,045817.000,0017.5299,N,03653.9067,E,1,12,,1699.0,M,,M,,*5D
$GPRMC,045817.000,A,0017.5299,N,03653.9067,E,,,250120,,A*43
$GPGGA,045833.000,0017.5294,N,03653.9067,E,1,11,,1699.0,M,,M,,*55
$GPRMC,045833.000,A,0017.5294,N,03653.9067,E,,,250120,,A*48
$GPGGA,045849.000,0017.5303,N,03653.9063,E,1,11,,1699.0,M,,M,,*53
$GPRMC,045849.000,A,0017.5303,N,03653.9063,E,,,250120,,A*4E
$GPGGA,045905.000,0017.5307,N,03653.9065,E,1,10,,1699.0,M,,M,,*59
$GPRMC,045905.000,A,0017.5307,N,03653.9065,E,,,250120,,A*45
$GPGGA,045921.000,0017.5307,N,03653.9069,E,1,10,,1699.0,M,,M,,*53
$GPRMC,045921.000,A,0017.5307,N,03653.9069,E,,,250120,,A*4F
$GPGGA,045937.000,0017.5311,N,03653.9067,E,1,11,,1699.0,M,,M,,*5C
$GPRMC,045937.000,A,0017.5311,N,03653.9067,E,,,250120,,A*41
$GPGGA,045953.000,0017.5315,N,03653.9072,E,1,10,,1699.0,M,,M,,*5F
$GPRMC,045953.000,A,0017.5315,N,03653.9072,E,,,250120,,A*43
$GPGGA,050009.000,0017.5339,N,03653.9076,E,1,12,,1699.0,M,,M,,*55
$GPRMC,050009.000,A,0017.5339,N,03653.9076,E,,,250120,,A*4B
$GPGGA,050025.000,0017.5340,N,03653.9088,E,1,9,,1699.0,M,,M,,*6E
$GPRMC,050025.000,A,0017.5340,N,03653.9088,E,,,250120,,A*4A
$GPGGA,050041.000,0017.5321,N,03653.9106,E,1,11,,1699.0,M,,M,,*55
$GPRMC,050041.000,A,0017.5321,N,03653.9106,E,,,250120,,A*48
$GPGGA,050057.000,0017.5320,N,03653.9113,E,1,10,,1699.0,M,,M,,*56
$GPRMC,050057.000,A,0017.5320,N,03653.9113,E,,,250120,,A*4A
$GPGGA,050113.000,0017.5302,N,03653.9101,E,1,12,,1699.0,M,,M,,*56
$GPRMC,050113.000,A,0017.5302,N,03653.9101,E,,,250120,,A*48
$GPGGA,050129.000,0017.5311,N,03653.9088,E,1,11,,1699.0,M,,M,,*5E
$GPRMC,050129.000,A,0017.5311,N,03653.9088,E,,,250120,,A*43
$GPGGA,050145.000,0017.5339,N,03653.9072,E,1,9,,1699.0,M,,M,,*62
$GPRMC,050145.000,A,0017.5339,N,03653.9072,E,,,250120,,A*46
$GPGGA,050201.000,0017.5347,N,03653.9088,E,1,9,,1699.0,M,,M,,*6D
$GPRMC,050201.000,A,0017.5347,N,03653.9088,E,,,250120,,A*49
$GPGGA,050217.000,0017.5347,N,03653.9085,E,1,12,,1699.0,M,,M,,*5D
$GPRMC,050217.000,A,0017.5347,N,03653.9085,E,,,250120,,A*43
$GPGGA,050233.000,0017.5334,N,03653.9095,E,1,11,,1699.0,M,,M,,*5D
$GPRMC,050233.000,A,0017.5334,N,03653.9095,E,,,250120,,A*40
$GPGGA,050249.000,0017.5331,N,03653.9092,E,1,10,,1699.0,M,,M,,*53
$GPRMC,050249.000,A,0017.5331,N,03653.9092,E,,,250120,,A*4F
$GPGGA,050305.000,0017.5331,N,03653.9095,E,1,9,,1699.0,M,,M,,*65
$GPRMC,050305.000,A,0017.5331,N,03653.9095,E,,,250120,,A*41
$GPGGA,050321.000,0017.5332,N,03653.9101,E,1,9,,1700.0,M,,M,,*6D
$GPRMC,050321.000,A,0017.5332,N,03653.9101,E,,,250120,,A*48
$GPGGA,050337.000,0017.5323,N,03653.9074,E,1,11,,1700.0,M,,M,,*50
$GPRMC,050337.000,A,0017.5323,N,03653.9074,E,,,250120,,A*4C
$GPGGA,050353.000,0017.5337,N,03653.9069,E,1,12,,1700.0,M,,M,,*58
$GPRMC,050353.000,A,0017.5337,N,03653.9069,E,,,250120,,A*47
$GPGGA,050409.000,0017.5325,N,03653.9085,E,1,10,,1700.0,M,,M,,*53
$GPRMC,050409.000,A,0017.5325,N,03653.9085,E,,,250120,,A*4E
$GPGGA,050425.000,0017.5304,N,03653.9076,E,1,11,,1700.0,M,,M,,*53
$GPRMC,050425.000,A,0017.5304,N,03653.9076,E,,,250120,,A*4F
$GPGGA,050441.000,0017.5326,N,03653.9067,E,1,8,,1700.0,M,,M,,*69
$GPRMC,050441.000,A,0017.5326,N,03653.9067,E,,,250120,,A*4D
$GPGGA,050457.000,0017.5328,N,03653.9092,E,1,10,,1700.0,M,,M,,*53
$GPRMC,050457.000,A,0017.5328,N,03653.9092,E,,,250120,,A*4E
$GPGGA,050513.000,0017.5321,N,03653.9092,E,1,12,,1700.0,M,,M,,*59
$GPRMC,050513.000,A,0017.5321,N,03653.9092,E,,,250120,,A*46
$GPGGA,050529.000,0017.5318,N,03653.9095,E,1,10,,1700.0,M,,M,,*5F
$GPRMC,050529.000,A,0017.5318,N,03653.9095,E,,,250120,,A*42
$GPGGA,050545.000,0017.5308,N,03653.9097,E,1,11,,1700.0,M,,M,,*57
$GPRMC,050545.000,A,0017.5308,N,03653.9097,E,,,250120,,A*4B
$GPGGA,050601.000,0017.5322,N,03653.9083,E,1,10,,1700.0,M,,M,,*58
$GPRMC,050601.000,A,0017.5322,N,03653.9083,E,,,250120,,A*45
$GPGGA,050617.000,0017.5308,N,03653.9065,E,1,8,,1700.0,M,,M,,*66
$GPRMC,050617.000,A,0017.5308,N,03653.9065,E,,,250120,,A*42
$GPGGA,050633.000,0017.5322,N,03653.9058,E,1,11,,1700.0,M,,M,,*5E
$GPRMC,050633.000,A,0017.5322,N,03653.9058,E,,,250120,,A*42
$GPGGA,050649.000,0017.5324,N,03653.9060,E,1,10,,1700.0,M,,M,,*5F
$GPRMC,050649.000,A,0017.5324,N,03653.9060,E,,,250120,,A*42
$GPGGA,050705.000,0017.5332,N,03653.9101,E,1,10,,1700.0,M,,M,,*57
$GPRMC,050705.000,A,0017.5332,N,03653.9101,E,,,250120,,A*4A
$GPGGA,050721.000,0017.5327,N,03653.9072,E,1,11,,1700.0,M,,M,,*51
$GPRMC,050721.000,A,0017.5327,N,03653.9072,E,,,250120,,A*4D
$GPGGA,050737.000,0017.5323,N,03653.9085,E,1,12,,1700.0,M,,M,,*59
$GPRMC,050737.000,A,0017.5323,N,03653.9085,E,,,250120,,A*46
$GPGGA,050753.000,0017.5330,N,03653.9085,E,1,10,,1700.0,M,,M,,*5B
$GPRMC,050753.000,A,0017.5330,N,03653.9085,E,,,250120,,A*46
$GPGGA,050809.000,0017.5332,N,03653.9088,E,1,10,,1701.0,M,,M,,*55
$GPRMC,050809.000,A,0017.5332,N,03653.9088,E,,,250120,,A*49
$GPGGA,050825.000,0017.5340,N,03653.9049,E,1,11,,1701.0,M,,M,,*52
$GPRMC,050825.000,A,0017.5340,N,03653.9049,E,,,250120,,A*4F
$GPGGA,050841.000,0017.5316,N,03653.9072,E,1,11,,1701.0,M,,M,,*5B
$GPRMC,050841.000,A,0017.5316,N,03653.9072,E,,,250120,,A*46
$GPGGA,050857.000,0017.5322,N,03653.9030,E,1,12,,1701.0,M,,M,,*5E
$GPRMC,050857.000,A,0017.5322,N,03653.9030,E,,,250120,,A*40
$GPGGA,050913.000,0017.5318,N,03653.9024,E,1,12,,1701.0,M,,M,,*53
$GPRMC,050913.000,A,0017.5318,N,03653.9024,E,,,250120,,A*4D
$GPGGA,050929.000,0017.5298,N,03653.9072,E,1,10,,1701.0,M,,M,,*52
$GPRMC,050929.000,A,0017.5298,N,03653.9072,E,,,250120,,A*4E
$GPGGA,050945.000,0017.5321,N,03653.9053,E,1,11,,1701.0,M,,M,,*59
$GPRMC,050945.000,A,0017.5321,N,03653.9053,E,,,250120,,A*44
$GPGGA,051001.000,0017.5319,N,03653.9049,E,1,11,,1701.0,M,,M,,*51
$GPRMC,051001.000,A,0017.5319,N,03653.9049,E,,,250120,,A*4C
$GPGGA,051017.000,0017.5326,N,03653.9113,E,1,9,,1701.0,M,,M,,*6D
$GPRMC,051017.000,A,0017.5326,N,03653.9113,E,,,250120,,A*49
$GPGGA,051033.000,0017.5364,N,03653.9063,E,1,11,,1701.0,M,,M,,*52
$GPRMC,051033.000,A,0017.5364,N,03653.9063,E,,,250120,,A*4F
$GPGGA,051049.000,0017.5355,N,03653.9063,E,1,9,,1701.0,M,,M,,*64
$GPRMC,051049.000,A,0017.5355,N,03653.9063,E,,,250120,,A*40
$GPGGA,051105.000,0017.5338,N,03653.9072,E,1,10,,1702.0,M,,M,,*5D
$GPRMC,051105.000,A,0017.5338,N,03653.9072,E,,,250120,,A*42
$GPGGA,051121.000,0017.5313,N,03653.9067,E,1,9,,1701.0,M,,M,,*6D
$GPRMC,051121.000,A,0017.5313,N,03653.9067,E,,,250120,,A*49
$GPGGA,051137.000,0017.5315,N,03653.9060,E,1,11,,1701.0,M,,M,,*52
$GPRMC,051137.000,A,0017.5315,N,03653.9060,E,,,250120,,A*4F
$GPGGA,051153.000,0017.5315,N,03653.9065,E,1,9,,1701.0,M,,M,,*6C
$GPRMC,051153.000,A,0017.5315,N,03653.9065,E,,,250120,,A*48
$GPGGA,051209.000,0017.5311,N,03653.9063,E,1,10,,1701.0,M,,M,,*5A
$GPRMC,051209.000,A,0017.5311,N,03653.9063,E,,,250120,,A*46
$GPGGA,051225.000,0017.5307,N,03653.9063,E,1,9,,1701.0,M,,M,,*6B
$GPRMC,051225.000,A,0017.5307,N,03653.9063,E,,,250120,,A*4F
$GPGGA,051241.000,0017.5306,N,03653.9035,E,1,9,,1701.0,M,,M,,*6B
$GPRMC,051241.000,A,0017.5306,N,03653.9035,E,,,250120,,A*4F
$GPGGA,051257.000,0017.5318,N,03653.9053,E,1,10,,1701.0,M,,M,,*5B
$GPRMC,051257.000,A,0017.5318,N,03653.9053,E,,,250120,,A*47
$GPGGA,051313.000,0017.5304,N,03653.9074,E,1,9,,1701.0,M,,M,,*6A
$GPRMC,051313.000,A,0017.5304,N,03653.9074,E,,,250120,,A*4E
$GPGGA,051329.000,0017.5305,N,03653.9063,E,1,10,,1701.0,M,,M,,*5C
$GPRMC,051329.000,A,0017.5305,N,03653.9063,E,,,250120,,A*40
$GPGGA,051345.000,0017.5306,N,03653.9065,E,1,10,,1701.0,M,,M,,*53
$GPRMC,051345.000,A,0017.5306,N,03653.9065,E,,,250120,,A*4F
$GPGGA,051401.000,0017.5309,N,03653.9072,E,1,11,,1701.0,M,,M,,*5C
$GPRMC,051401.000,A,0017.5309,N,03653.9072,E,,,250120,,A*41
$GPGGA,051417.000,0017.5310,N,03653.9067,E,1,10,,1701.0,M,,M,,*56
$GPRMC,051417.000,A,0017.5310,N,03653.9067,E,,,250120,,A*4A
$GPGGA,051433.000,0017.5307,N,03653.9056,E,1,10,,1701.0,M,,M,,*54
$GPRMC,051433.000,A,0017.5307,N,03653.9056,E,,,250120,,A*48
$GPGGA,051449.000,0017.5309,N,03653.8996,E,1,11,,1701.0,M,,M,,*52
$GPRMC,051449.000,A,0017.5309,N,03653.8996,E,,,250120,,A*4F
$GPGGA,051505.000,0017.5304,N,03653.9060,E,1,11,,1701.0,M,,M,,*57
$GPRMC,051505.000,A,0017.5304,N,03653.9060,E,,,250120,,A*4A
$GPGGA,051521.000,0017.5305,N,03653.9063,E,1,10,,1701.0,M,,M,,*52
$GPRMC,051521.000,A,0017.5305,N,03653.9063,E,,,250120,,A*4E
$GPGGA,051537.000,0017.5309,N,03653.9072,E,1,11,,1701.0,M,,M,,*58
$GPRMC,051537.000,A,0017.5309,N,03653.9072,E,,,250120,,A*45
$GPGGA,051553.000,0017.5309,N,03653.9074,E,1,10,,1701.0,M,,M,,*5D
$GPRMC,051553.000,A,0017.5309,N,03653.9074,E,,,250120,,A*41
$GPGGA,051609.000,0017.5312,N,03653.9033,E,1,11,,1701.0,M,,M,,*59
$GPRMC,051609.000,A,0017.5312,N,03653.9033,E,,,250120,,A*44
$GPGGA,051625.000,0017.5307,N,03653.9040,E,1,11,,1701.0,M,,M,,*57
$GPRMC,051625.000,A,0017.5307,N,03653.9040,E,,,250120,,A*4A
$GPGGA,051641.000,0017.5306,N,03653.9037,E,1,12,,1701.0,M,,M,,*57
$GPRMC,051641.000,A,0017.5306,N,03653.9037,E,,,250120,,A*49
$GPGGA,051657.000,0017.5299,N,03653.9069,E,1,11,,1701.0,M,,M,,*5F
$GPRMC,051657.000,A,0017.5299,N,03653.9069,E,,,250120,,A*42
$GPGGA,051713.000,0017.5305,N,03653.9056,E,1,12,,1701.0,M,,M,,*55
$GPRMC,051713.000,A,0017.5305,N,03653.9056,E,,,250120,,A*4B
$GPGGA,051729.000,0017.5306,N,03653.9046,E,1,11,,1701.0,M,,M,,*5D
$GPRMC,051729.000,A,0017.5306,N,03653.9046,E,,,250120,,A*40
$GPGGA,051745.000,0017.5286,N,03653.9058,E,1,11,,1701.0,M,,M,,*51
$GPRMC,051745.000,A,0017.5286,N,03653.9058,E,,,250120,,A*4C
$GPGGA,051801.000,0017.5303,N,03653.9051,E,1,11,,1701.0,M,,M,,*5B
$GPRMC,051801.000,A,0017.5303,N,03653.9051,E,,,250120,,A*46
$GPGGA,051817.000,0017.5299,N,03653.9065,E,1,10,,1701.0,M,,M,,*58
$GPRMC,051817.000,A,0017.5299,N,03653.9065,E,,,250120,,A*44
$GPGGA,051833.000,0017.5298,N,03653.9049,E,1,10,,1701.0,M,,M,,*51
$GPRMC,051833.000,A,0017.5298,N,03653.9049,E,,,250120,,A*4D
$GPGGA,051849.000,0017.5281,N,03653.9053,E,1,11,,1701.0,M,,M,,*5E
$GPRMC,051849.000,A,0017.5281,N,03653.9053,E,,,250120,,A*43
$GPGGA,051905.000,0017.5312,N,03653.9060,E,1,11,,1701.0,M,,M,,*5C
$GPRMC,051905.000,A,0017.5312,N,03653.9060,E,,,250120,,A*41
$GPGGA,051921.000,0017.5318,N,03653.9058,E,1,9,,1701.0,M,,M,,*62
$GPRMC,051921.000,A,0017.5318,N,03653.9058,E,,,250120,,A*46
$GPGGA,051937.000,0017.5315,N,03653.9046,E,1,10,,1701.0,M,,M,,*5F
$GPRMC,051937.000,A,0017.5315,N,03653.9046,E,,,250120,,A*43
$GPGGA,051953.000,0017.5321,N,03653.9028,E,1,11,,1701.0,M,,M,,*53
$GPRMC,051953.000,A,0017.5321,N,03653.9028,E,,,250120,,A*4E
$GPGGA,052009.000,0017.5319,N,03653.9040,E,1,11,,1701.0,M,,M,,*53
$GPRMC,052009.000,A,0017.5319,N,03653.9040,E,,,250120,,A*4E
$GPGGA,052025.000,0017.5316,N,03653.9049,E,1,11,,1701.0,M,,M,,*5B
$GPRMC,052025.000,A,0017.5316,N,03653.9049,E,,,250120,,A*46
$GPGGA,052041.000,0017.5295,N,03653.9079,E,1,11,,1701.0,M,,M,,*50
$GPRMC,052041.000,A,0017.5295,N,03653.9079,E,,,250120,,A*4D
$GPGGA,052057.000,0017.5288,N,03653.9063,E,1,11,,1701.0,M,,M,,*50
$GPRMC,052057.000,A,0017.5288,N,03653.9063,E,,,250120,,A*4D
$GPGGA,052113.000,0017.5285,N,03653.9063,E,1,11,,1701.0,M,,M,,*5C
$GPRMC,052113.000,A,0017.5285,N,03653.9063,E,,,250120,,A*41
$GPGGA,052129.000,0017.5292,N,03653.9053,E,1,11,,1701.0,M,,M,,*50
$GPRMC,052129.000,A,0017.5292,N,03653.9053,E,,,250120,,A*4D
$GPGGA,052145.000,0017.5296,N,03653.9040,E,1,11,,1701.0,M,,M,,*5C
$GPRMC,052145.000,A,0017.5296,N,03653.9040,E,,,250120,,A*41
$GPGGA,052201.000,0017.5299,N,03653.9040,E,1,10,,1701.0,M,,M,,*51
$GPRMC,052201.000,A,0017.5299,N,03653.9040,E,,,250120,,A*4D
$GPGGA,052217.000,0017.5290,N,03653.9069,E,1,10,,1701.0,M,,M,,*54
$GPRMC,052217.000,A,0017.5290,N,03653.9069,E,,,250120,,A*48
$GPGGA,052233.000,0017.5291,N,03653.9074,E,1,10,,1701.0,M,,M,,*5F
$GPRMC,052233.000,A,0017.5291,N,03653.9074,E,,,250120,,A*43
$GPGGA,052249.000,0017.5301,N,03653.9069,E,1,10,,1701.0,M,,M,,*56
$GPRMC,052249.000,A,0017.5301,N,03653.9069,E,,,250120,,A*4A
$GPGGA,052305.000,0017.5307,N,03653.9069,E,1,11,,1701.0,M,,M,,*58
$GPRMC,052305.000,A,0017.5307,N,03653.9069,E,,,250120,,A*45
$GPGGA,052321.000,0017.5302,N,03653.9076,E,1,9,,1701.0,M,,M,,*6C
$GPRMC,052321.000,A,0017.5302,N,03653.9076,E,,,250120,,A*48
$GPGGA,052337.000,0017.5303,N,03653.9079,E,1,10,,1701.0,M,,M,,*5D
$GPRMC,052337.000,A,0017.5303,N,03653.9079,E,,,250120,,A*41
$GPGGA,052353.000,0017.5293,N,03653.9067,E,1,9,,1701.0,M,,M,,*60
$GPRMC,052353.000,A,0017.5293,N,03653.9067,E,,,250120,,A*44
$GPGGA,052409.000,0017.5288,N,03653.9053,E,1,10,,1701.0,M,,M,,*5D
$GPRMC,052409.000,A,0017.5288,N,03653.9053,E,,,250120,,A*41
$GPGGA,052425.000,0017.5291,N,03653.9058,E,1,10,,1701.0,M,,M,,*50
$GPRMC,052425.000,A,0017.5291,N,03653.9058,E,,,250120,,A*4C
$GPGGA,052441.000,0017.5296,N,03653.9046,E,1,9,,1701.0,M,,M,,*62
$GPRMC,052441.000,A,0017.5296,N,03653.9046,E,,,250120,,A*46
$GPGGA,052457.000,0017.5295,N,03653.9049,E,1,10,,1701.0,M,,M,,*51
$GPRMC,052457.000,A,0017.5295,N,03653.9049,E,,,250120,,A*4D
$GPGGA,052513.000,0017.5291,N,03653.9063,E,1,9,,1701.0,M,,M,,*64
$GPRMC,052513.000,A,0017.5291,N,03653.9063,E,,,250120,,A*40
$GPGGA,052529.000,0017.5294,N,03653.9046,E,1,10,,1701.0,M,,M,,*57
$GPRMC,052529.000,A,0017.5294,N,03653.9046,E,,,250120,,A*4B
$GPGGA,052545.000,0017.5288,N,03653.9049,E,1,9,,1701.0,M,,M,,*67
$GPRMC,052545.000,A,0017.5288,N,03653.9049,E,,,250120,,A*43
$GPGGA,052601.000,0017.5274,N,03653.9044,E,1,10,,1701.0,M,,M,,*52
$GPRMC,052601.000,A,0017.5274,N,03653.9044,E,,,250120,,A*4E
$GPGGA,052617.000,0017.5277,N,03653.9051,E,1,9,,1701.0,M,,M,,*6A
$GPRMC,052617.000,A,0017.5277,N,03653.9051,E,,,250120,,A*4E
$GPGGA,052633.000,0017.5283,N,03653.9046,E,1,9,,1701.0,M,,M,,*61
$GPRMC,052633.000,A,0017.5283,N,03653.9046,E,,,250120,,A*45
$GPGGA,052649.000,0017.5292,N,03653.9044,E,1,10,,1701.0,M,,M,,*56
$GPRMC,052649.000,A,0017.5292,N,03653.9044,E,,,250120,,A*4A
$GPGGA,052705.000,0017.5294,N,03653.9044,E,1,9,,1701.0,M,,M,,*61
$GPRMC,052705.000,A,0017.5294,N,03653.9044,E,,,250120,,A*45
$GPGGA,052721.000,0017.5293,N,03653.9051,E,1,10,,1701.0,M,,M,,*5C
$GPRMC,052721.000,A,0017.5293,N,03653.9051,E,,,250120,,A*40
$GPGGA,052737.000,0017.5286,N,03653.9042,E,1,10,,1700.0,M,,M,,*5C
$GPRMC,052737.000,A,0017.5286,N,03653.9042,E,,,250120,,A*41
$GPGGA,052753.000,0017.5294,N,03653.9042,E,1,11,,1700.0,M,,M,,*5C
$GPRMC,052753.000,A,0017.5294,N,03653.9042,E,,,250120,,A*40
$GPGGA,052809.000,0017.5294,N,03653.9053,E,1,11,,1700.0,M,,M,,*5C
$GPRMC,052809.000,A,0017.5294,N,03653.9053,E,,,250120,,A*40
$GPGGA,052825.000,0017.5304,N,03653.9063,E,1,11,,1700.0,M,,M,,*59
$GPRMC,052825.000,A,0017.5304,N,03653.9063,E,,,250120,,A*45
$GPGGA,052841.000,0017.5300,N,03653.9060,E,1,11,,1700.0,M,,M,,*5C
$GPRMC,052841.000,A,0017.5300,N,03653.9060,E,,,250120,,A*40
$GPGGA,052857.000,0017.5305,N,03653.9065,E,1,11,,1700.0,M,,M,,*5B
$GPRMC,052857.000,A,0017.5305,N,03653.9065,E,,,250120,,A*47
$GPGGA,052913.000,0017.5301,N,03653.9060,E,1,10,,1700.0,M,,M,,*5A
$GPRMC,052913.000,A,0017.5301,N,03653.9060,E,,,250120,,A*47
$GPGGA,052929.000,0017.5297,N,03653.9058,E,1,10,,1700.0,M,,M,,*56
$GPRMC,052929.000,A,0017.5297,N,03653.9058,E,,,250120,,A*4B
$GPGGA,052945.000,0017.5303,N,03653.9069,E,1,10,,1700.0,M,,M,,*52
$GPRMC,052945.000,A,0017.5303,N,03653.9069,E,,,250120,,A*4F
$GPGGA,053001.000,0017.5308,N,03653.9076,E,1,10,,1700.0,M,,M,,*5F
$GPRMC,053001.000,A,0017.5308,N,03653.9076,E,,,250120,,A*42
$GPGGA,053017.000,0017.5308,N,03653.9074,E,1,10,,1700.0,M,,M,,*5A
$GPRMC,053017.000,A,0017.5308,N,03653.9074,E,,,250120,,A*47
$GPGGA,053033.000,0017.5308,N,03653.9069,E,1,11,,1700.0,M,,M,,*51
$GPRMC,053033.000,A,0017.5308,N,03653.9069,E,,,250120,,A*4D
$GPGGA,053049.000,0017.5313,N,03653.9069,E,1,11,,1700.0,M,,M,,*56
$GPRMC,053049.000,A,0017.5313,N,03653.9069,E,,,250120,,A*4A
$GPGGA,053105.000,0017.5312,N,03653.9076,E,1,10,,1700.0,M,,M,,*51
$GPRMC,053105.000,A,0017.5312,N,03653.9076,E,,,250120,,A*4C
$GPGGA,053121.000,0017.5306,N,03653.9076,E,1,11,,1700.0,M,,M,,*53
$GPRMC,053121.000,A,0017.5306,N,03653.9076,E,,,250120,,A*4F
$GPGGA,053137.000,0017.5308,N,03653.9079,E,1,11,,1700.0,M,,M,,*55
$GPRMC,053137.000,A,0017.5308,N,03653.9079,E,,,250120,,A*49
$GPGGA,053153.000,0017.5317,N,03653.9063,E,1,10,,1700.0,M,,M,,*53
$GPRMC,053153.000,A,0017.5317,N,03653.9063,E,,,250120,,A*4E
$GPGGA,053209.000,0017.5311,N,03653.9067,E,1,9,,1700.0,M,,M,,*65
$GPRMC,053209.000,A,0017.5311,N,03653.9067,E,,,250120,,A*40
$GPGGA,053225.000,0017.5305,N,03653.9081,E,1,10,,1700.0,M,,M,,*5E
$GPRMC,053225.000,A,0017.5305,N,03653.9081,E,,,250120,,A*43
$GPGGA,053241.000,0017.5302,N,03653.9083,E,1,9,,1700.0,M,,M,,*61
$GPRMC,053241.000,A,0017.5302,N,03653.9083,E,,,250120,,A*44
$GPGGA,053257.000,0017.5300,N,03653.9072,E,1,10,,1701.0,M,,M,,*53
$GPRMC,053257.000,A,0017.5300,N,03653.9072,E,,,250120,,A*4F
$GPGGA,053313.000,0017.5297,N,03653.9072,E,1,10,,1701.0,M,,M,,*5D
$GPRMC,053313.000,A,0017.5297,N,03653.9072,E,,,250120,,A*41
$GPGGA,053329.000,0017.5293,N,03653.9058,E,1,10,,1701.0,M,,M,,*58
$GPRMC,053329.000,A,0017.5293,N,03653.9058,E,,,250120,,A*44
$GPGGA,053345.000,0017.5300,N,03653.9079,E,1,10,,1701.0,M,,M,,*5A
$GPRMC,053345.000,A,0017.5300,N,03653.9079,E,,,250120,,A*46
$GPGGA,053401.000,0017.5309,N,03653.9033,E,1,9,,1701.0,M,,M,,*62
$GPRMC,053401.000,A,0017.5309,N,03653.9033,E,,,250120,,A*46
$GPGGA,053417.000,0017.5297,N,03653.9037,E,1,9,,1701.0,M,,M,,*67
$GPRMC,053417.000,A,0017.5297,N,03653.9037,E,,,250120,,A*43
$GPGGA,053433.000,0017.5303,N,03653.9024,E,1,7,,1701.0,M,,M,,*61
$GPRMC,053433.000,A,0017.5303,N,03653.9024,E,,,250120,,A*4B
$GPGGA,053449.000,0017.5302,N,03653.9028,E,1,9,,1701.0,M,,M,,*6F
$GPRMC,053449.000,A,0017.5302,N,03653.9028,E,,,250120,,A*4B
$GPGGA,053505.000,0017.5297,N,03653.9026,E,1,11,,1701.0,M,,M,,*5C
$GPRMC,053505.000,A,0017.5297,N,03653.9026,E,,,250120,,A*41
$GPGGA,053521.000,0017.5286,N,03653.9044,E,1,10,,1701.0,M,,M,,*5F
$GPRMC,053521.000,A,0017.5286,N,03653.9044,E,,,250120,,A*43
$GPGGA,053537.000,0017.5297,N,03653.9012,E,1,9,,1701.0,M,,M,,*63
$GPRMC,053537.000,A,0017.5297,N,03653.9012,E,,,250120,,A*47
$GPGGA,053553.000,0017.5296,N,03653.9026,E,1,8,,1701.0,M,,M,,*66
$GPRMC,053553.000,A,0017.5296,N,03653.9026,E,,,250120,,A*43
$GPGGA,053609.000,0017.5296,N,03653.9035,E,1,9,,1701.0,M,,M,,*69
$GPRMC,053609.000,A,0017.5296,N,03653.9035,E,,,250120,,A*4D
$GPGGA,053625.000,0017.5296,N,03653.9067,E,1,8,,1700.0,M,,M,,*60
$GPRMC,053625.000,A,0017.5296,N,03653.9067,E,,,250120,,A*44
$GPGGA,053641.000,0017.5300,N,03653.9053,E,1,9,,1701.0,M,,M,,*6B
$GPRMC,053641.000,A,0017.5300,N,03653.9053,E,,,250120,,A*4F
$GPGGA,053657.000,0017.5299,N,03653.9003,E,1,10,,1701.0,M,,M,,*50
$GPRMC,053657.000,A,0017.5299,N,03653.9003,E,,,250120,,A*4C
$GPGGA,053713.000,0017.5302,N,03653.9021,E,1,9,,1701.0,M,,M,,*6A
$GPRMC,053713.000,A,0017.5302,N,03653.9021,E,,,250120,,A*4E
$GPGGA,053729.000,0017.5322,N,03653.9056,E,1,10,,1701.0,M,,M,,*59
$GPRMC,053729.000,A,0017.5322,N,03653.9056,E,,,250120,,A*45
$GPGGA,053745.000,0017.5311,N,03653.9019,E,1,9,,1701.0,M,,M,,*60
$GPRMC,053745.000,A,0017.5311,N,03653.9019,E,,,250120,,A*44
$GPGGA,053801.000,0017.5300,N,03653.9056,E,1,10,,1701.0,M,,M,,*5C
$GPRMC,053801.000,A,0017.5300,N,03653.9056,E,,,250120,,A*40
$GPGGA,053817.000,0017.5296,N,03653.9042,E,1,9,,1701.0,M,,M,,*68
$GPRMC,053817.000,A,0017.5296,N,03653.9042,E,,,250120,,A*4C
$GPGGA,053833.000,0017.5302,N,03653.9035,E,1,10,,1701.0,M,,M,,*5A
$GPRMC,053833.000,A,0017.5302,N,03653.9035,E,,,250120,,A*46
$GPGGA,053849.000,0017.5306,N,03653.9028,E,1,10,,1701.0,M,,M,,*5F
$GPRMC,053849.000,A,0017.5306,N,03653.9028,E,,,250120,,A*43
$GPGGA,053905.000,0017.5308,N,03653.9019,E,1,11,,1701.0,M,,M,,*5B
$GPRMC,053905.000,A,0017.5308,N,03653.9019,E,,,250120,,A*46
$GPGGA,053921.000,0017.5312,N,03653.9053,E,1,10,,1701.0,M,,M,,*59
$GPRMC,053921.000,A,0017.5312,N,03653.9053,E,,,250120,,A*45
$GPGGA,053937.000,0017.5287,N,03653.9074,E,1,9,,1701.0,M,,M,,*6E
$GPRMC,053937.000,A,0017.5287,N,03653.9074,E,,,250120,,A*4A
$GPGGA,053953.000,0017.5289,N,03653.9060,E,1,11,,1701.0,M,,M,,*5E
$GPRMC,053953.000,A,0017.5289,N,03653.9060,E,,,250120,,A*43
$GPGGA,054009.000,0017.5273,N,03653.9001,E,1,10,,1701.0,M,,M,,*5C
$GPRMC,054009.000,A,0017.5273,N,03653.9001,E,,,250120,,A*40
$GPGGA,054025.000,0017.5280,N,03653.9010,E,1,11,,1701.0,M,,M,,*5F
$GPRMC,054025.000,A,0017.5280,N,03653.9010,E,,,250120,,A*42
$GPGGA,054041.000,0017.5287,N,03653.9046,E,1,11,,1701.0,M,,M,,*59
$GPRMC,054041.000,A,0017.5287,N,03653.9046,E,,,250120,,A*44
$GPGGA,054057.000,0017.5301,N,03653.9067,E,1,9,,1701.0,M,,M,,*6B
$GPRMC,054057.000,A,0017.5301,N,03653.9067,E,,,250120,,A*4F
$GPGGA,054113.000,0017.5288,N,03653.9017,E,1,9,,1701.0,M,,M,,*6D
$GPRMC,054113.000,A,0017.5288,N,03653.9017,E,,,250120,,A*49
$GPGGA,054129.000,0017.5289,N,03653.9019,E,1,9,,1701.0,M,,M,,*6B
$GPRMC,054129.000,A,0017.5289,N,03653.9019,E,,,250120,,A*4F
$GPGGA,054145.000,0017.5308,N,03653.9042,E,1,9,,1701.0,M,,M,,*67
$GPRMC,054145.000,A,0017.5308,N,03653.9042,E,,,250120,,A*43
$GPGGA,054201.000,0017.5305,N,03653.9037,E,1,8,,1701.0,M,,M,,*6A
$GPRMC,054201.000,A,0017.5305,N,03653.9037,E,,,250120,,A*4F
$GPGGA,054217.000,0017.5291,N,03653.9053,E,1,9,,1701.0,M,,M,,*62
$GPRMC,054217.000,A,0017.5291,N,03653.9053,E,,,250120,,A*46
$GPGGA,054233.000,0017.5292,N,03653.9060,E,1,6,,1701.0,M,,M,,*68
$GPRMC,054233.000,A,0017.5292,N,03653.9060,E,,,250120,,A*43
$GPGGA,054249.000,0017.5277,N,03653.9074,E,1,9,,1701.0,M,,M,,*64
$GPRMC,054249.000,A,0017.5277,N,03653.9074,E,,,250120,,A*40
$GPGGA,054305.000,0017.5287,N,03653.9072,E,1,8,,1701.0,M,,M,,*65
$GPRMC,054305.000,A,0017.5287,N,03653.9072,E,,,250120,,A*40
$GPGGA,054321.000,0017.5295,N,03653.9079,E,1,8,,1701.0,M,,M,,*6B
$GPRMC,054321.000,A,0017.5295,N,03653.9079,E,,,250120,,A*4E
$GPGGA,054337.000,0017.5288,N,03653.9079,E,1,9,,1701.0,M,,M,,*61
$GPRMC,054337.000,A,0017.5288,N,03653.9079,E,,,250120,,A*45
$GPGGA,054353.000,0017.5291,N,03653.9049,E,1,7,,1701.0,M,,M,,*66
$GPRMC,054353.000,A,0017.5291,N,03653.9049,E,,,250120,,A*4C
$GPGGA,054409.000,0017.5307,N,03653.9040,E,1,9,,1701.0,M,,M,,*67
$GPRMC,054409.000,A,0017.5307,N,03653.9040,E,,,250120,,A*43
$GPGGA,054425.000,0017.5304,N,03653.9035,E,1,9,,1701.0,M,,M,,*68
$GPRMC,054425.000,A,0017.5304,N,03653.9035,E,,,250120,,A*4C
$GPGGA,054441.000,0017.5292,N,03653.9010,E,1,9,,1702.0,M,,M,,*60
$GPRMC,054441.000,A,0017.5292,N,03653.9010,E,,,250120,,A*47
$GPGGA,054457.000,0017.5315,N,03653.9028,E,1,9,,1702.0,M,,M,,*62
$GPRMC,054457.000,A,0017.5315,N,03653.9028,E,,,250120,,A*45
$GPGGA,054513.000,0017.5316,N,03653.9030,E,1,9,,1702.0,M,,M,,*69
$GPRMC,054513.000,A,0017.5316,N,03653.9030,E,,,250120,,A*4E
$GPGGA,054529.000,0017.5291,N,03653.9058,E,1,11,,1702.0,M,,M,,*59
$GPRMC,054529.000,A,0017.5291,N,03653.9058,E,,,250120,,A*47
$GPGGA,054545.000,0017.5288,N,03653.9063,E,1,9,,1702.0,M,,M,,*6A
$GPRMC,054545.000,A,0017.5288,N,03653.9063,E,,,250120,,A*4D
$GPGGA,054601.000,0017.5311,N,03653.9053,E,1,11,,1702.0,M,,M,,*52
$GPRMC,054601.000,A,0017.5311,N,03653.9053,E,,,250120,,A*4C
$GPGGA,054617.000,0017.5296,N,03653.9056,E,1,8,,1702.0,M,,M,,*66
$GPRMC,054617.000,A,0017.5296,N,03653.9056,E,,,250120,,A*40
$GPGGA,054633.000,0017.5295,N,03653.9069,E,1,8,,1702.0,M,,M,,*6F
$GPRMC,054633.000,A,0017.5295,N,03653.9069,E,,,250120,,A*49
$GPGGA,054649.000,0017.5292,N,03653.9072,E,1,9,,1701.0,M,,M,,*6D
$GPRMC,054649.000,A,0017.5292,N,03653.9072,E,,,250120,,A*49
$GPGGA,054705.000,0017.5306,N,03653.9060,E,1,10,,1701.0,M,,M,,*53
$GPRMC,054705.000,A,0017.5306,N,03653.9060,E,,,250120,,A*4F
$GPGGA,054721.000,0017.5312,N,03653.9035,E,1,10,,1701.0,M,,M,,*50
$GPRMC,054721.000,A,0017.5312,N,03653.9035,E,,,250120,,A*4C
$GPGGA,054737.000,0017.5302,N,03653.9040,E,1,10,,1702.0,M,,M,,*57
$GPRMC,054737.000,A,0017.5302,N,03653.9040,E,,,250120,,A*48
$GPGGA,054753.000,0017.5293,N,03653.9003,E,1,10,,1702.0,M,,M,,*5B
$GPRMC,054753.000,A,0017.5293,N,03653.9003,E,,,250120,,A*44
$GPGGA,054809.000,0017.5291,N,03653.9003,E,1,10,,1701.0,M,,M,,*5A
$GPRMC,054809.000,A,0017.5291,N,03653.9003,E,,,250120,,A*46
$GPGGA,054825.000,0017.5290,N,03653.9033,E,1,9,,1702.0,M,,M,,*6D
$GPRMC,054825.000,A,0017.5290,N,03653.9033,E,,,250120,,A*4A
$GPGGA,054841.000,0017.5315,N,03653.9058,E,1,10,,1702.0,M,,M,,*56
$GPRMC,054841.000,A,0017.5315,N,03653.9058,E,,,250120,,A*49
$GPGGA,054857.000,0017.5311,N,03653.9040,E,1,10,,1701.0,M,,M,,*5F
$GPRMC,054857.000,A,0017.5311,N,03653.9040,E,,,250120,,A*43
$GPGGA,054913.000,0017.5299,N,03653.9049,E,1,10,,1701.0,M,,M,,*56
$GPRMC,054913.000,A,0017.5299,N,03653.9049,E,,,250120,,A*4A
$GPGGA,054929.000,0017.5292,N,03653.9040,E,1,8,,1701.0,M,,M,,*64
$GPRMC,054929.000,A,0017.5292,N,03653.9040,E,,,250120,,A*41
$GPGGA,054945.000,0017.5299,N,03653.9017,E,1,7,,1701.0,M,,M,,*68
$GPRMC,054945.000,A,0017.5299,N,03653.9017,E,,,250120,,A*42
$GPGGA,055001.000,0017.5286,N,03653.9060,E,1,9,,1701.0,M,,M,,*60
$GPRMC,055001.000,A,0017.5286,N,03653.9060,E,,,250120,,A*44
$GPGGA,055017.000,0017.5284,N,03653.9053,E,1,8,,1701.0,M,,M,,*64
$GPRMC,055017.000,A,0017.5284,N,03653.9053,E,,,250120,,A*41
$GPGGA,055033.000,0017.5305,N,03653.9033,E,1,10,,1701.0,M,,M,,*55
$GPRMC,055033.000,A,0017.5305,N,03653.9033,E,,,250120,,A*49
$GPGGA,055049.000,0017.5308,N,03653.9042,E,1,10,,1701.0,M,,M,,*53
$GPRMC,055049.000,A,0017.5308,N,03653.9042,E,,,250120,,A*4F
$GPGGA,055105.000,0017.5297,N,03653.9028,E,1,8,,1701.0,M,,M,,*68
$GPRMC,055105.000,A,0017.5297,N,03653.9028,E,,,250120,,A*4D
$GPGGA,055121.000,0017.5311,N,03653.9035,E,1,9,,1701.0,M,,M,,*6C
$GPRMC,055121.000,A,0017.5311,N,03653.9035,E,,,250120,,A*48
$GPGGA,055137.000,0017.5309,N,03653.9033,E,1,10,,1701.0,M,,M,,*5C
$GPRMC,055137.000,A,0017.5309,N,03653.9033,E,,,250120,,A*40
$GPGGA,055153.000,0017.5299,N,03653.9040,E,1,8,,1701.0,M,,M,,*6B
$GPRMC,055153.000,A,0017.5299,N,03653.9040,E,,,250120,,A*4E
$GPGGA,055209.000,0017.5305,N,03653.9033,E,1,10,,1701.0,M,,M,,*5E
$GPRMC,055209.000,A,0017.5305,N,03653.9033,E,,,250120,,A*42
$GPGGA,055225.000,0017.5303,N,03653.9046,E,1,9,,1701.0,M,,M,,*6C
$GPRMC,055225.000,A,0017.5303,N,03653.9046,E,,,250120,,A*48
$GPGGA,055241.000,0017.5299,N,03653.9058,E,1,8,,1701.0,M,,M,,*62
$GPRMC,055241.000,A,0017.5299,N,03653.9058,E,,,250120,,A*47
$GPGGA,055257.000,0017.5290,N,03653.9051,E,1,10,,1701.0,M,,M,,*5C
$GPRMC,055257.000,A,0017.5290,N,03653.9051,E,,,250120,,A*40
$GPGGA,055313.000,0017.5289,N,03653.9026,E,1,9,,1701.0,M,,M,,*6D
$GPRMC,055313.000,A,0017.5289,N,03653.9026,E,,,250120,,A*49
$GPGGA,055329.000,0017.5288,N,03653.9028,E,1,8,,1701.0,M,,M,,*6A
$GPRMC,055329.000,A,0017.5288,N,03653.9028,E,,,250120,,A*4F
$GPGGA,055345.000,0017.5289,N,03653.9056,E,1,8,,1701.0,M,,M,,*68
$GPRMC,055345.000,A,0017.5289,N,03653.9056,E,,,250120,,A*4D
$GPGGA,055401.000,0017.5297,N,03653.9053,E,1,8,,1701.0,M,,M,,*65
$GPRMC,055401.000,A,0017.5297,N,03653.9053,E,,,250120,,A*40
$GPGGA,055417.000,0017.5296,N,03653.9056,E,1,10,,1701.0,M,,M,,*5F
$GPRMC,055417.000,A,0017.5296,N,03653.9056,E,,,250120,,A*43
$GPGGA,055433.000,0017.5298,N,03653.9049,E,1,10,,1701.0,M,,M,,*59
$GPRMC,055433.000,A,0017.5298,N,03653.9049,E,,,250120,,A*45
$GPGGA,055449.000,0017.5284,N,03653.9076,E,1,9,,1701.0,M,,M,,*6D
$GPRMC,055449.000,A,0017.5284,N,03653.9076,E,,,250120,,A*49
$GPGGA,055505.000,0017.5295,N,03653.9074,E,1,10,,1701.0,M,,M,,*5E
$GPRMC,055505.000,A,0017.5295,N,03653.9074,E,,,250120,,A*42
$GPGGA,055521.000,0017.5299,N,03653.9060,E,1,10,,1701.0,M,,M,,*51
$GPRMC,055521.000,A,0017.5299,N,03653.9060,E,,,250120,,A*4D
$GPGGA,055537.000,0017.5295,N,03653.9060,E,1,10,,1701.0,M,,M,,*5A
$GPRMC,055537.000,A,0017.5295,N,03653.9060,E,,,250120,,A*46
$GPGGA,055553.000,0017.5318,N,03653.9040,E,1,10,,1701.0,M,,M,,*5E
$GPRMC,055553.000,A,0017.5318,N,03653.9040,E,,,250120,,A*42
$GPGGA,055609.000,0017.5315,N,03653.9021,E,1,8,,1701.0,M,,M,,*61
$GPRMC,055609.000,A,0017.5315,N,03653.9021,E,,,250120,,A*44
$GPGGA,055625.000,0017.5300,N,03653.9033,E,1,10,,1701.0,M,,M,,*51
$GPRMC,055625.000,A,0017.5300,N,03653.9033,E,,,250120,,A*4D
$GPGGA,055641.000,0017.5311,N,03653.9074,E,1,9,,1701.0,M,,M,,*68
$GPRMC,055641.000,A,0017.5311,N,03653.9074,E,,,250120,,A*4C
$GPGGA,055657.000,0017.5317,N,03653.9040,E,1,10,,1701.0,M,,M,,*56
$GPRMC,055657.000,A,0017.5317,N,03653.9040,E,,,250120,,A*4A
$GPGGA,055713.000,0017.5314,N,03653.9028,E,1,10,,1701.0,M,,M,,*5A
$GPRMC,055713.000,A,0017.5314,N,03653.9028,E,,,250120,,A*46
$GPGGA,055729.000,0017.5309,N,03653.9010,E,1,9,,1701.0,M,,M,,*6C
$GPRMC,055729.000,A,0017.5309,N,03653.9010,E,,,250120,,A*48
$GPGGA,055745.000,0017.5272,N,03653.9030,E,1,8,,1701.0,M,,M,,*68
$GPRMC,055745.000,A,0017.5272,N,03653.9030,E,,,250120,,A*4D
$GPGGA,055801.000,0017.5274,N,03653.9040,E,1,8,,1701.0,M,,M,,*66
$GPRMC,055801.000,A,0017.5274,N,03653.9040,E,,,250120,,A*43
$GPGGA,055817.000,0017.5286,N,03653.9065,E,1,9,,1700.0,M,,M,,*6B
$GPRMC,055817.000,A,0017.5286,N,03653.9065,E,,,250120,,A*4E
$GPGGA,055833.000,0017.5292,N,03653.9058,E,1,9,,1700.0,M,,M,,*66
$GPRMC,055833.000,A,0017.5292,N,03653.9058,E,,,250120,,A*43
$GPGGA,055849.000,0017.5290,N,03653.9053,E,1,10,,1700.0,M,,M,,*5A
$GPRMC,055849.000,A,0017.5290,N,03653.9053,E,,,250120,,A*47
$GPGGA,055905.000,0017.5294,N,03653.9069,E,1,10,,1700.0,M,,M,,*5E
$GPRMC,055905.000,A,0017.5294,N,03653.9069,E,,,250120,,A*43
$GPGGA,055921.000,0017.5289,N,03653.9069,E,1,8,,1700.0,M,,M,,*6D
$GPRMC,055921.000,A,0017.5289,N,03653.9069,E,,,250120,,A*49
$GPGGA,055937.000,0017.5278,N,03653.9088,E,1,8,,1700.0,M,,M,,*6B
$GPRMC,055937.000,A,0017.5278,N,03653.9088,E,,,250120,,A*4F
$GPGGA,055953.000,0017.5313,N,03653.9037,E,1,7,,1700.0,M,,M,,*6E
$GPRMC,055953.000,A,0017.5313,N,03653.9037,E,,,250120,,A*45
$GPGGA,060009.000,0017.5295,N,03653.9044,E,1,9,,1700.0,M,,M,,*6B
$GPRMC,060009.000,A,0017.5295,N,03653.9044,E,,,250120,,A*4E
$GPGGA,060025.000,0017.5287,N,03653.9037,E,1,9,,1700.0,M,,M,,*62
$GPRMC,060025.000,A,0017.5287,N,03653.9037,E,,,250120,,A*47
$GPGGA,060041.000,0017.5287,N,03653.9040,E,1,7,,1700.0,M,,M,,*6E
$GPRMC,060041.000,A,0017.5287,N,03653.9040,E,,,250120,,A*45
$GPGGA,060057.000,0017.5284,N,03653.9040,E,1,10,,1701.0,M,,M,,*5D
$GPRMC,060057.000,A,0017.5284,N,03653.9040,E,,,250120,,A*41
$GPGGA,060113.000,0017.5269,N,03653.8989,E,1,10,,1701.0,M,,M,,*52
$GPRMC,060113.000,A,0017.5269,N,03653.8989,E,,,250120,,A*4E
$GPGGA,060133.000,0017.5270,N,03653.8973,E,1,6,,1701.0,M,,M,,*6A
$GPRMC,060133.000,A,0017.5270,N,03653.8973,E,,,250120,,A*41
$GPGGA,060148.000,0017.5262,N,03653.8996,E,1,10,,1701.0,M,,M,,*59
$GPRMC,060148.000,A,0017.5262,N,03653.8996,E,,,250120,,A*45
$GPGGA,060203.000,0017.5263,N,03653.8989,E,1,10,,1701.0,M,,M,,*5A
$GPRMC,060203.000,A,0017.5263,N,03653.8989,E,,,250120,,A*46
$GPGGA,060218.000,0017.5261,N,03653.8992,E,1,10,,1701.0,M,,M,,*58
$GPRMC,060218.000,A,0017.5261,N,03653.8992,E,,,250120,,A*44
$GPGGA,060233.000,0017.5263,N,03653.8992,E,1,11,,1701.0,M,,M,,*52
$GPRMC,060233.000,A,0017.5263,N,03653.8992,E,,,250120,,A*4F
$GPGGA,060248.000,0017.5265,N,03653.8992,E,1,11,,1702.0,M,,M,,*5B
$GPRMC,060248.000,A,0017.5265,N,03653.8992,E,,,250120,,A*45
$GPGGA,060257.000,0017.5266,N,03653.8994,E,1,11,,1702.0,M,,M,,*50
$GPRMC,060257.000,A,0017.5266,N,03653.8994,E,,,250120,,A*4E
$GPGGA,060313.000,0017.5273,N,03653.9012,E,1,11,,1700.0,M,,M,,*51
$GPRMC,060313.000,A,0017.5273,N,03653.9012,E,,,250120,,A*4D
$GPGGA,060329.000,0017.5273,N,03653.8994,E,1,11,,1700.0,M,,M,,*5E
$GPRMC,060329.000,A,0017.5273,N,03653.8994,E,,,250120,,A*42
$GPGGA,060345.000,0017.5266,N,03653.9005,E,1,11,,1700.0,M,,M,,*50
$GPRMC,060345.000,A,0017.5266,N,03653.9005,E,,,250120,,A*4C
$GPGGA,060401.000,0017.5267,N,03653.8994,E,1,11,,1700.0,M,,M,,*56
$GPRMC,060401.000,A,0017.5267,N,03653.8994,E,,,250120,,A*4A
$GPGGA,060417.000,0017.5260,N,03653.8992,E,1,10,,1700.0,M,,M,,*51
$GPRMC,060417.000,A,0017.5260,N,03653.8992,E,,,250120,,A*4C
$GPGGA,060432.000,0017.5276,N,03653.8964,E,1,6,,1700.0,M,,M,,*6F
$GPRMC,060432.000,A,0017.5276,N,03653.8964,E,,,250120,,A*45
$GPGGA,060447.000,0017.5244,N,03653.8994,E,1,10,,1700.0,M,,M,,*54
$GPRMC,060447.000,A,0017.5244,N,03653.8994,E,,,250120,,A*49
$GPGGA,060502.000,0017.5246,N,03653.9001,E,1,11,,1700.0,M,,M,,*53
$GPRMC,060502.000,A,0017.5246,N,03653.9001,E,,,250120,,A*4F
$GPGGA,060517.000,0017.5198,N,03653.8985,E,1,11,,1700.0,M,,M,,*53
$GPRMC,060517.000,A,0017.5198,N,03653.8985,E,,,250120,,A*4F
$GPGGA,060532.000,0017.5241,N,03653.9005,E,1,11,,1701.0,M,,M,,*52
$GPRMC,060532.000,A,0017.5241,N,03653.9005,E,,,250120,,A*4F
$GPGGA,060541.000,0017.5217,N,03653.8994,E,1,11,,1702.0,M,,M,,*56
$GPRMC,060541.000,A,0017.5217,N,03653.8994,E,,,250120,,A*48
$GPGGA,060557.000,0017.5177,N,03653.8969,E,1,11,,1702.0,M,,M,,*56
$GPRMC,060557.000,A,0017.5177,N,03653.8969,E,,,250120,,A*48
$GPGGA,060613.000,0017.5158,N,03653.8950,E,1,10,,1702.0,M,,M,,*53
$GPRMC,060613.000,A,0017.5158,N,03653.8950,E,,,250120,,A*4C
$GPGGA,060629.000,0017.5163,N,03653.8943,E,1,11,,1702.0,M,,M,,*51
$GPRMC,060629.000,A,0017.5163,N,03653.8943,E,,,250120,,A*4F
$GPGGA,060645.000,0017.5152,N,03653.8930,E,1,10,,1702.0,M,,M,,*5C
$GPRMC,060645.000,A,0017.5152,N,03653.8930,E,,,250120,,A*43
$GPGGA,060701.000,0017.5133,N,03653.8909,E,1,11,,1702.0,M,,M,,*51
$GPRMC,060701.000,A,0017.5133,N,03653.8909,E,,,250120,,A*4F
$GPGGA,060717.000,0017.5140,N,03653.8934,E,1,11,,1702.0,M,,M,,*5C
$GPRMC,060717.000,A,0017.5140,N,03653.8934,E,,,250120,,A*42
$GPGGA,060733.000,0017.5133,N,03653.8918,E,1,11,,1702.0,M,,M,,*50
$GPRMC,060733.000,A,0017.5133,N,03653.8918,E,,,250120,,A*4E
$GPGGA,060749.000,0017.5135,N,03653.8914,E,1,11,,1702.0,M,,M,,*57
$GPRMC,060749.000,A,0017.5135,N,03653.8914,E,,,250120,,A*49
$GPGGA,060805.000,0017.5129,N,03653.8905,E,1,11,,1702.0,M,,M,,*5D
$GPRMC,060805.000,A,0017.5129,N,03653.8905,E,,,250120,,A*43
$GPGGA,060820.000,0017.5150,N,03653.8900,E,1,9,,1701.0,M,,M,,*6B
$GPRMC,060820.000,A,0017.5150,N,03653.8900,E,,,250120,,A*4F
$GPGGA,060835.000,0017.5131,N,03653.8914,E,1,10,,1702.0,M,,M,,*56
$GPRMC,060835.000,A,0017.5131,N,03653.8914,E,,,250120,,A*49
$GPGGA,060850.000,0017.5128,N,03653.8914,E,1,11,,1702.0,M,,M,,*5C
$GPRMC,060850.000,A,0017.5128,N,03653.8914,E,,,250120,,A*42
$GPGGA,060905.000,0017.5125,N,03653.8916,E,1,10,,1702.0,M,,M,,*53
$GPRMC,060905.000,A,0017.5125,N,03653.8916,E,,,250120,,A*4C
$GPGGA,060916.000,0017.5130,N,03653.8911,E,1,11,,1701.0,M,,M,,*50
$GPRMC,060916.000,A,0017.5130,N,03653.8911,E,,,250120,,A*4D
$GPGGA,060932.000,0017.5135,N,03653.8911,E,1,9,,1701.0,M,,M,,*6A
$GPRMC,060932.000,A,0017.5135,N,03653.8911,E,,,250120,,A*4E
$GPGGA,060948.000,0017.5131,N,03653.8918,E,1,10,,1701.0,M,,M,,*52
$GPRMC,060948.000,A,0017.5131,N,03653.8918,E,,,250120,,A*4E
$GPGGA,061004.000,0017.5153,N,03653.8900,E,1,10,,1701.0,M,,M,,*5F
$GPRMC,061004.000,A,0017.5153,N,03653.8900,E,,,250120,,A*43
$GPGGA,061020.000,0017.5144,N,03653.8895,E,1,11,,1701.0,M,,M,,*53
$GPRMC,061020.000,A,0017.5144,N,03653.8895,E,,,250120,,A*4E
$GPGGA,061036.000,0017.5129,N,03653.8900,E,1,9,,1701.0,M,,M,,*6B
$GPRMC,061036.000,A,0017.5129,N,03653.8900,E,,,250120,,A*4F
$GPGGA,061052.000,0017.5143,N,03653.8914,E,1,10,,1701.0,M,,M,,*58
$GPRMC,061052.000,A,0017.5143,N,03653.8914,E,,,250120,,A*44
$GPGGA,061108.000,0017.5145,N,03653.8893,E,1,11,,1701.0,M,,M,,*5F
$GPRMC,061108.000,A,0017.5145,N,03653.8893,E,,,250120,,A*42
$GPGGA,061124.000,0017.5165,N,03653.8893,E,1,10,,1701.0,M,,M,,*52
$GPRMC,061124.000,A,0017.5165,N,03653.8893,E,,,250120,,A*4E
$GPGGA,061140.000,0017.5159,N,03653.8900,E,1,10,,1701.0,M,,M,,*54
$GPRMC,061140.000,A,0017.5159,N,03653.8900,E,,,250120,,A*48
$GPGGA,061156.000,0017.5152,N,03653.8902,E,1,11,,1701.0,M,,M,,*5B
$GPRMC,061156.000,A,0017.5152,N,03653.8902,E,,,250120,,A*46
$GPGGA,061212.000,0017.5179,N,03653.8953,E,1,10,,1701.0,M,,M,,*54
$GPRMC,061212.000,A,0017.5179,N,03653.8953,E,,,250120,,A*48
$GPGGA,061228.000,0017.5152,N,03653.8886,E,1,11,,1701.0,M,,M,,*5C
$GPRMC,061228.000,A,0017.5152,N,03653.8886,E,,,250120,,A*41
$GPGGA,061244.000,0017.5098,N,03653.8781,E,1,10,,1701.0,M,,M,,*58
$GPRMC,061244.000,A,0017.5098,N,03653.8781,E,,,250120,,A*44
$GPGGA,061300.000,0017.5046,N,03653.8641,E,1,11,,1701.0,M,,M,,*56
$GPRMC,061300.000,A,0017.5046,N,03653.8641,E,,,250120,,A*4B
$GPGGA,061316.000,0017.5074,N,03653.8616,E,1,11,,1701.0,M,,M,,*52
$GPRMC,061316.000,A,0017.5074,N,03653.8616,E,,,250120,,A*4F
$GPGGA,061332.000,0017.5086,N,03653.8728,E,1,10,,1701.0,M,,M,,*54
$GPRMC,061332.000,A,0017.5086,N,03653.8728,E,,,250120,,A*48
$GPGGA,061348.000,0017.5105,N,03653.8840,E,1,10,,1702.0,M,,M,,*51
$GPRMC,061348.000,A,0017.5105,N,03653.8840,E,,,250120,,A*4E
$GPGGA,061404.000,0017.5127,N,03653.8886,E,1,11,,1702.0,M,,M,,*55
$GPRMC,061404.000,A,0017.5127,N,03653.8886,E,,,250120,,A*4B
$GPGGA,061419.000,0017.5158,N,03653.8925,E,1,11,,1702.0,M,,M,,*59
$GPRMC,061419.000,A,0017.5158,N,03653.8925,E,,,250120,,A*47
$GPGGA,061436.000,0017.5142,N,03653.8927,E,1,7,,1702.0,M,,M,,*6A
$GPRMC,061436.000,A,0017.5142,N,03653.8927,E,,,250120,,A*43
$GPGGA,061451.000,0017.5136,N,03653.8921,E,1,8,,1702.0,M,,M,,*61
$GPRMC,061451.000,A,0017.5136,N,03653.8921,E,,,250120,,A*47
$GPGGA,061508.000,0017.5148,N,03653.8925,E,1,8,,1703.0,M,,M,,*60
$GPRMC,061508.000,A,0017.5148,N,03653.8925,E,,,250120,,A*47
$GPGGA,061524.000,0017.5173,N,03653.8902,E,1,11,,1702.0,M,,M,,*5A
$GPRMC,061524.000,A,0017.5173,N,03653.8902,E,,,250120,,A*44
$GPGGA,061540.000,0017.5264,N,03653.8937,E,1,11,,1702.0,M,,M,,*5B
$GPRMC,061540.000,A,0017.5264,N,03653.8937,E,,,250120,,A*45
$GPGGA,061556.000,0017.5270,N,03653.8964,E,1,9,,1702.0,M,,M,,*66
$GPRMC,061556.000,A,0017.5270,N,03653.8964,E,,,250120,,A*41
$GPGGA,061612.000,0017.5270,N,03653.8953,E,1,9,,1702.0,M,,M,,*61
$GPRMC,061612.000,A,0017.5270,N,03653.8953,E,,,250120,,A*46
$GPGGA,061628.000,0017.5273,N,03653.8957,E,1,11,,1702.0,M,,M,,*56
$GPRMC,061628.000,A,0017.5273,N,03653.8957,E,,,250120,,A*48
$GPGGA,061644.000,0017.5286,N,03653.8971,E,1,11,,1702.0,M,,M,,*52
$GPRMC,061644.000,A,0017.5286,N,03653.8971,E,,,250120,,A*4C
$GPGGA,061700.000,0017.5217,N,03653.8941,E,1,10,,1702.0,M,,M,,*59
$GPRMC,061700.000,A,0017.5217,N,03653.8941,E,,,250120,,A*46
$GPGGA,061716.000,0017.5162,N,03653.8905,E,1,11,,1702.0,M,,M,,*5E
$GPRMC,061716.000,A,0017.5162,N,03653.8905,E,,,250120,,A*40
$GPGGA,061732.000,0017.5156,N,03653.8902,E,1,10,,1702.0,M,,M,,*59
$GPRMC,061732.000,A,0017.5156,N,03653.8902,E,,,250120,,A*46
$GPGGA,061748.000,0017.5160,N,03653.8907,E,1,7,,1702.0,M,,M,,*62
$GPRMC,061748.000,A,0017.5160,N,03653.8907,E,,,250120,,A*4B
$GPGGA,061804.000,0017.5156,N,03653.8907,E,1,10,,1702.0,M,,M,,*56
$GPRMC,061804.000,A,0017.5156,N,03653.8907,E,,,250120,,A*49
$GPGGA,061815.000,0017.5149,N,03653.8905,E,1,8,,1702.0,M,,M,,*63
$GPRMC,061815.000,A,0017.5149,N,03653.8905,E,,,250120,,A*45
$GPGGA,061831.000,0017.5147,N,03653.8911,E,1,7,,1702.0,M,,M,,*61
$GPRMC,061831.000,A,0017.5147,N,03653.8911,E,,,250120,,A*48
$GPGGA,061847.000,0017.5174,N,03653.8859,E,1,10,,1702.0,M,,M,,*5B
$GPRMC,061847.000,A,0017.5174,N,03653.8859,E,,,250120,,A*44
$GPGGA,061903.000,0017.5167,N,03653.8760,E,1,7,,1702.0,M,,M,,*6B
$GPRMC,061903.000,A,0017.5167,N,03653.8760,E,,,250120,,A*42
$GPGGA,061918.000,0017.5429,N,03653.8639,E,1,9,,1702.0,M,,M,,*6D
$GPRMC,061918.000,A,0017.5429,N,03653.8639,E,,,250120,,A*4A
$GPGGA,061937.000,0017.5675,N,03653.8699,E,1,7,,1702.0,M,,M,,*6F
$GPRMC,061937.000,A,0017.5675,N,03653.8699,E,,,250120,,A*46
$GPGGA,061952.000,0017.5889,N,03653.8671,E,1,7,,1702.0,M,,M,,*67
$GPRMC,061952.000,A,0017.5889,N,03653.8671,E,,,250120,,A*4E
$GPGGA,062008.000,0017.6565,N,03653.8703,E,1,7,,1702.0,M,,M,,*6A
$GPRMC,062008.000,A,0017.6565,N,03653.8703,E,,,250120,,A*43
$GPGGA,062024.000,0017.6775,N,03653.8950,E,1,9,,1702.0,M,,M,,*61
$GPRMC,062024.000,A,0017.6775,N,03653.8950,E,,,250120,,A*46
$GPGGA,062041.000,0017.7089,N,03653.9836,E,1,9,,1703.0,M,,M,,*66
$GPRMC,062041.000,A,0017.7089,N,03653.9836,E,,,250120,,A*40
$GPGGA,062057.000,0017.6818,N,03654.0184,E,1,10,,1703.0,M,,M,,*56
$GPRMC,062057.000,A,0017.6818,N,03654.0184,E,,,250120,,A*48
$GPGGA,062112.000,0017.6418,N,03654.0381,E,1,10,,1703.0,M,,M,,*5D
$GPRMC,062112.000,A,0017.6418,N,03654.0381,E,,,250120,,A*43
$GPGGA,062129.000,0017.6737,N,03654.0495,E,1,8,,1702.0,M,,M,,*61
$GPRMC,062129.000,A,0017.6737,N,03654.0495,E,,,250120,,A*47
$GPGGA,062144.000,0017.7306,N,03654.0722,E,1,7,,1702.0,M,,M,,*6D
$GPRMC,062144.000,A,0017.7306,N,03654.0722,E,,,250120,,A*44
$GPGGA,062200.000,0017.7389,N,03654.0777,E,1,8,,1702.0,M,,M,,*66
$GPRMC,062200.000,A,0017.7389,N,03654.0777,E,,,250120,,A*40
$GPGGA,062217.000,0017.7363,N,03654.0848,E,1,6,,1703.0,M,,M,,*68
$GPRMC,062217.000,A,0017.7363,N,03654.0848,E,,,250120,,A*41
$GPGGA,062233.000,0017.7437,N,03654.0848,E,1,8,,1703.0,M,,M,,*66
$GPRMC,062233.000,A,0017.7437,N,03654.0848,E,,,250120,,A*41
$GPGGA,062249.000,0017.7674,N,03654.0875,E,1,9,,1702.0,M,,M,,*60
$GPRMC,062249.000,A,0017.7674,N,03654.0875,E,,,250120,,A*47
$GPGGA,062304.000,0017.7916,N,03654.1411,E,1,7,,1703.0,M,,M,,*63
$GPRMC,062304.000,A,0017.7916,N,03654.1411,E,,,250120,,A*4B
$GPGGA,062321.000,0017.8013,N,03654.1209,E,1,8,,1703.0,M,,M,,*67
$GPRMC,062321.000,A,0017.8013,N,03654.1209,E,,,250120,,A*40
$GPGGA,062336.000,0017.8236,N,03654.0642,E,1,9,,1704.0,M,,M,,*68
$GPRMC,062336.000,A,0017.8236,N,03654.0642,E,,,250120,,A*49
$GPGGA,062353.000,0017.8530,N,03654.0292,E,1,7,,1705.0,M,,M,,*6C
$GPRMC,062353.000,A,0017.8530,N,03654.0292,E,,,250120,,A*42
$GPGGA,062409.000,0017.8948,N,03653.9850,E,1,9,,1705.0,M,,M,,*63
$GPRMC,062409.000,A,0017.8948,N,03653.9850,E,,,250120,,A*43
$GPGGA,062425.000,0017.9388,N,03653.9472,E,1,7,,1705.0,M,,M,,*68
$GPRMC,062425.000,A,0017.9388,N,03653.9472,E,,,250120,,A*46
$GPGGA,062441.000,0017.9663,N,03653.9182,E,1,7,,1705.0,M,,M,,*60
$GPRMC,062441.000,A,0017.9663,N,03653.9182,E,,,250120,,A*4E
$GPGGA,062457.000,0017.9829,N,03653.9053,E,1,8,,1705.0,M,,M,,*65
$GPRMC,062457.000,A,0017.9829,N,03653.9053,E,,,250120,,A*44
$GPGGA,062512.000,0018.0554,N,03653.8126,E,1,9,,1706.0,M,,M,,*64
$GPRMC,062512.000,A,0018.0554,N,03653.8126,E,,,250120,,A*47
$GPGGA,062528.000,0018.0617,N,03653.7941,E,1,8,,1706.0,M,,M,,*6E
$GPRMC,062528.000,A,0018.0617,N,03653.7941,E,,,250120,,A*4C
$GPGGA,062544.000,0018.0650,N,03653.7767,E,1,10,,1706.0,M,,M,,*54
$GPRMC,062544.000,A,0018.0650,N,03653.7767,E,,,250120,,A*4F
$GPGGA,062601.000,0018.0689,N,03653.7627,E,1,3,,1706.0,M,,M,,*65
$GPRMC,062601.000,A,0018.0689,N,03653.7627,E,,,250120,,A*4C
$GPGGA,062616.000,0018.1235,N,03653.7003,E,1,11,,1706.0,M,,M,,*52
$GPRMC,062616.000,A,0018.1235,N,03653.7003,E,,,250120,,A*48
$GPGGA,062632.000,0018.0905,N,03653.6842,E,1,11,,1705.0,M,,M,,*52
$GPRMC,062632.000,A,0018.0905,N,03653.6842,E,,,250120,,A*4B
$GPGGA,062648.000,0018.0753,N,03653.6934,E,1,11,,1706.0,M,,M,,*51
$GPRMC,062648.000,A,0018.0753,N,03653.6934,E,,,250120,,A*4B
$GPGGA,062704.000,0018.0308,N,03653.7012,E,1,11,,1706.0,M,,M,,*5E
$GPRMC,062704.000,A,0018.0308,N,03653.7012,E,,,250120,,A*44
$GPGGA,062720.000,0017.9970,N,03653.7016,E,1,11,,1706.0,M,,M,,*5F
$GPRMC,062720.000,A,0017.9970,N,03653.7016,E,,,250120,,A*45
$GPGGA,062736.000,0017.9968,N,03653.7019,E,1,11,,1706.0,M,,M,,*5E
$GPRMC,062736.000,A,0017.9968,N,03653.7019,E,,,250120,,A*44
$GPGGA,062752.000,0017.9957,N,03653.7037,E,1,11,,1706.0,M,,M,,*5C
$GPRMC,062752.000,A,0017.9957,N,03653.7037,E,,,250120,,A*46
$GPGGA,062808.000,0017.9984,N,03653.6998,E,1,11,,1706.0,M,,M,,*5F
$GPRMC,062808.000,A,0017.9984,N,03653.6998,E,,,250120,,A*45
$GPGGA,062824.000,0017.9987,N,03653.6987,E,1,9,,1706.0,M,,M,,*65
$GPRMC,062824.000,A,0017.9987,N,03653.6987,E,,,250120,,A*46
$GPGGA,062840.000,0018.0215,N,03653.6934,E,1,11,,1706.0,M,,M,,*50
$GPRMC,062840.000,A,0018.0215,N,03653.6934,E,,,250120,,A*4A
$GPGGA,062856.000,0018.0625,N,03653.6833,E,1,10,,1706.0,M,,M,,*57
$GPRMC,062856.000,A,0018.0625,N,03653.6833,E,,,250120,,A*4C
$GPGGA,062911.000,0018.1028,N,03653.6900,E,1,10,,1706.0,M,,M,,*5E
$GPRMC,062911.000,A,0018.1028,N,03653.6900,E,,,250120,,A*45
$GPGGA,062928.000,0018.1275,N,03653.7014,E,1,11,,1707.0,M,,M,,*53
$GPRMC,062928.000,A,0018.1275,N,03653.7014,E,,,250120,,A*48
$GPGGA,062944.000,0018.1415,N,03653.7179,E,1,11,,1707.0,M,,M,,*53
$GPRMC,062944.000,A,0018.1415,N,03653.7179,E,,,250120,,A*48
$GPGGA,063000.000,0018.1570,N,03653.7273,E,1,11,,1707.0,M,,M,,*50
$GPRMC,063000.000,A,0018.1570,N,03653.7273,E,,,250120,,A*4B
$GPGGA,063016.000,0018.1770,N,03653.7337,E,1,11,,1707.0,M,,M,,*54
$GPRMC,063016.000,A,0018.1770,N,03653.7337,E,,,250120,,A*4F
$GPGGA,063032.000,0018.1858,N,03653.7360,E,1,11,,1707.0,M,,M,,*55
$GPRMC,063032.000,A,0018.1858,N,03653.7360,E,,,250120,,A*4E
$GPGGA,063048.000,0018.1662,N,03653.7206,E,1,11,,1707.0,M,,M,,*5E
$GPRMC,063048.000,A,0018.1662,N,03653.7206,E,,,250120,,A*45
$GPGGA,063104.000,0018.1562,N,03653.6964,E,1,11,,1708.0,M,,M,,*55
$GPRMC,063104.000,A,0018.1562,N,03653.6964,E,,,250120,,A*41
$GPGGA,063120.000,0018.1583,N,03653.6975,E,1,11,,1708.0,M,,M,,*5C
$GPRMC,063120.000,A,0018.1583,N,03653.6975,E,,,250120,,A*48
$GPGGA,063136.000,0018.1553,N,03653.6984,E,1,11,,1708.0,M,,M,,*58
$GPRMC,063136.000,A,0018.1553,N,03653.6984,E,,,250120,,A*4C
$GPGGA,063151.000,0018.1761,N,03653.6790,E,1,9,,1708.0,M,,M,,*68
$GPRMC,063151.000,A,0018.1761,N,03653.6790,E,,,250120,,A*45
$GPGGA,063208.000,0018.2035,N,03653.6678,E,1,9,,1708.0,M,,M,,*65
$GPRMC,063208.000,A,0018.2035,N,03653.6678,E,,,250120,,A*48
$GPGGA,063223.000,0018.2303,N,03653.6655,E,1,10,,1708.0,M,,M,,*5D
$GPRMC,063223.000,A,0018.2303,N,03653.6655,E,,,250120,,A*48
$GPGGA,063243.000,0018.3504,N,03653.6391,E,1,10,,1709.0,M,,M,,*57
$GPRMC,063243.000,A,0018.3504,N,03653.6391,E,,,250120,,A*43
$GPGGA,063258.000,0018.4040,N,03653.6268,E,1,10,,1710.0,M,,M,,*50
$GPRMC,063258.000,A,0018.4040,N,03653.6268,E,,,250120,,A*4C
$GPGGA,063315.000,0018.4688,N,03653.6142,E,1,10,,1710.0,M,,M,,*51
$GPRMC,063315.000,A,0018.4688,N,03653.6142,E,,,250120,,A*4D
$GPGGA,063331.000,0018.5271,N,03653.6046,E,1,10,,1710.0,M,,M,,*51
